City_ID,City,Lat,Lng,Max Temp,Humidity,Cloudiness,Wind Speed,Country,Date
0,luderitz,-26.6481,15.1594,286.81,90,1,5.09,NA,1723415588
1,port-aux-francais,-49.35,70.2167,277.98,96,100,15.31,TF,1723415589
2,kailua-kona,19.6406,-155.9956,303.86,76,0,6.69,US,1723415591
3,prado,-17.3411,-39.2208,294.84,87,100,2.91,BR,1723415592
4,olonkinbyen,70.9221,-8.7187,275.88,87,100,4.82,SJ,1723415593
5,edinburgh of the seven seas,-37.0676,-12.3116,287.78,94,100,12.46,SH,1723415594
6,misratah,32.3754,15.0925,300.89,71,0,3.09,LY,1723415595
7,st. john's,47.5649,-52.7093,292.68,91,75,3.09,CA,1723415422
8,margaret river,-33.95,115.0667,288.31,55,80,10.17,AU,1723415597
9,puerto quijarro,-17.7833,-57.7667,294.51,27,67,2.4,BO,1723415598
10,punta arenas,-53.15,-70.9167,277.21,93,0,2.57,CL,1723415600
11,ilulissat,69.2167,-51.1,287.16,38,69,7.72,GL,1723415601
12,invercargill,-46.4,168.35,282.05,71,57,6.71,NZ,1723415338
13,bandar-e lengeh,26.5579,54.8807,305.32,78,33,5.71,IR,1723415603
14,rong'an,26.1247,119.1214,300.92,93,11,0.55,CN,1723415604
15,isafjordur,66.0755,-23.124,279.65,91,100,2.79,IS,1723415607
16,kavieng,-2.5744,150.7967,301.34,73,100,1.29,PG,1723415608
17,puerto armuelles,8.2833,-82.8667,299.87,83,50,3.13,PA,1723415609
18,hawaiian paradise park,19.5933,-154.9731,301.33,82,100,1.54,US,1723415610
19,ancud,-41.8697,-73.8203,280.74,87,99,0.94,CL,1723415611
20,waitangi,-43.9535,-176.5597,284.16,80,78,3.13,NZ,1723415612
21,arraial do cabo,-22.9661,-42.0278,293.3,73,66,5.29,BR,1723415614
22,puerto natales,-51.7236,-72.4875,277.4,87,100,3.09,CL,1723415615
23,longyearbyen,78.2186,15.6401,290.06,51,0,7.2,SJ,1723415616
24,blackmans bay,-43.0167,147.3167,282.33,91,80,0.45,AU,1723415617
25,maitum,6.0392,124.4986,299.5,82,72,1.95,PH,1723415618
26,mossendjo,-2.9506,12.7261,293.14,90,35,1.05,CG,1723415619
27,mantua,45.1667,10.7833,300.4,86,67,0.89,IT,1723415620
28,port lincoln,-34.7333,135.8667,287.52,62,0,6.55,AU,1723415622
29,avarua,-21.2078,-159.775,297.18,53,20,2.57,CK,1723415623
30,west island,-12.1568,96.8225,299.14,78,11,4.63,CC,1723415624
31,quellon,-43.1167,-73.6167,280.91,89,100,5.04,CL,1723415625
32,lihue,21.9789,-159.3672,301.34,70,20,7.2,US,1723415626
33,tisul',55.7611,88.3122,283.6,92,63,1.81,RU,1723415627
34,sodra sandby,56.5667,16.6167,289.2,79,0,5.65,SE,1723415628
35,ust-nera,64.5667,143.2,288.63,77,99,3.52,RU,1723415435
36,sinabang,2.4803,96.3801,298.15,86,81,1.81,ID,1723415631
37,parkano,62.0167,23.0167,285.3,84,99,4.39,FI,1723415632
38,boguchany,58.3814,97.4531,286.64,92,76,2.55,RU,1723415534
39,luanco,43.6152,-5.7934,296.04,90,81,1.79,ES,1723415634
40,yellowknife,62.456,-114.3525,294.44,64,100,7.2,CA,1723415635
41,sarangani,5.4033,125.4636,301.64,75,59,4.49,PH,1723415636
42,akureyri,65.6835,-18.0878,283.11,81,75,1.03,IS,1723415637
43,kharabali,47.4196,47.2568,299.03,41,63,3.65,RU,1723415639
44,adamstown,-25.066,-130.1015,291.2,61,91,7.68,PN,1723415640
45,kerikeri,-35.2268,173.9474,288.66,77,69,2.68,NZ,1723415641
46,shingu,33.7333,135.9833,302.78,63,39,0.65,JP,1723415642
47,as sulayyil,20.4607,45.5779,307.05,16,19,2.74,SA,1723415373
48,otjimbingwe,-22.35,16.1333,291.24,12,40,0.19,NA,1723415645
49,vilyuchinsk,52.9306,158.4028,288.61,83,99,2.15,RU,1723415646
50,thompson,55.7435,-97.8558,303.24,26,20,3.09,CA,1723415647
51,albany,42.6001,-73.9662,294.58,71,81,2.24,US,1723415473
52,hamilton,39.1834,-84.5333,298.6,49,75,4.63,US,1723415649
53,happy valley-goose bay,53.3168,-60.3315,300.32,34,20,3.6,CA,1723415650
54,copala,16.65,-98.9833,301.57,77,99,5.41,MX,1723415651
55,grytviken,-54.2811,-36.5092,263.88,66,83,2.19,GS,1723415652
56,rio grande,-32.035,-52.0986,284.21,69,50,7.58,BR,1723415654
57,vorgashor,67.5833,63.95,282.2,66,96,4.61,RU,1723415655
58,geraldton,-28.7667,114.6,284.38,87,20,3.6,AU,1723415551
59,kapelle,50.9998,2.3585,293.16,83,8,0.89,FR,1723415657
60,hobyo,5.3505,48.5268,296.74,87,16,10.39,SO,1723415452
61,cabo san lucas,22.8909,-109.9124,304.32,66,20,5.14,MX,1723415478
62,kodiak,57.79,-152.4072,289.88,48,20,4.63,US,1723415662
63,wailua homesteads,22.0669,-159.378,301.0,69,20,7.2,US,1723415663
64,ulanhot,46.0833,122.0833,292.39,84,98,3.03,CN,1723415664
65,kolonia,50.9333,6.95,295.51,67,0,4.12,DE,1723415634
66,tam ky,15.5667,108.4833,298.71,84,100,2.41,VN,1723415666
67,pangody,65.85,74.4859,284.83,94,100,3.41,RU,1723415667
68,pulandian,39.3953,121.9669,298.42,95,92,3.92,CN,1723415668
69,keflavik,64.0049,-22.5624,284.39,87,75,3.6,IS,1723415669
70,bethel,41.3712,-73.414,299.84,60,0,3.09,US,1723415374
71,kabala,9.5833,-11.55,294.59,97,99,2.18,SL,1723415672
72,chengzihe,45.3333,131.0667,295.24,91,100,2.56,CN,1723415673
73,dowa,-13.654,33.9375,288.43,51,1,0.59,MW,1723415675
74,bilibino,68.0546,166.4372,282.0,79,100,7.49,RU,1723415676
75,hermanus,-34.4187,19.2345,285.55,73,77,3.84,ZA,1723415679
76,nsanje,-16.92,35.262,293.59,68,0,1.45,MW,1723415620
77,timbuktu,16.7735,-3.0074,303.42,49,85,1.73,ML,1723415681
78,tofol,5.3248,163.0078,301.77,71,16,2.68,FM,1723415682
79,angra do heroismo,38.65,-27.2167,295.49,77,20,0.45,PT,1723415683
80,corfu,39.62,19.9197,302.14,69,0,1.54,GR,1723415685
81,enewetak,11.3474,162.3373,301.77,77,100,6.59,MH,1723415686
82,margate,51.3813,1.3862,292.42,83,0,6.59,GB,1723415611
83,east london,-33.0153,27.9116,289.28,58,100,8.61,ZA,1723415688
84,ushuaia,-54.8,-68.3,274.96,87,20,1.03,AR,1723415674
85,suncho corral,-27.9336,-63.4294,288.42,21,0,4.27,AR,1723415690
86,likasi,-10.9814,26.7333,289.9,33,0,1.84,CD,1723415691
87,college,64.8569,-147.8028,289.14,51,75,2.57,US,1723415693
88,nova vicosa,-17.8919,-39.3719,295.4,83,100,2.67,BR,1723415694
89,utrik,11.2278,169.8474,301.37,79,73,6.72,MH,1723415695
90,lebu,-37.6167,-73.65,282.41,90,44,5.89,CL,1723415696
91,jamestown,42.097,-79.2353,291.95,77,0,4.63,US,1723415589
92,bandon,51.7469,-8.7425,289.92,99,93,4.63,IE,1723415698
93,seydi,39.4816,62.9137,302.45,21,2,3.65,TM,1723415699
94,betio village,1.358,172.9211,301.9,72,17,4.08,KI,1723415700
95,ban karon,7.8477,98.2985,302.47,82,97,9.91,TH,1723415702
96,weno,7.4515,151.8468,303.12,84,75,2.06,FM,1723415703
97,papatowai,-46.5619,169.4708,280.24,76,89,8.75,NZ,1723415704
98,rikaze,29.25,88.8833,286.47,65,100,0.94,CN,1723415705
99,hotan,37.0997,79.9269,298.58,31,27,0.9,CN,1723415706
100,vila franca do campo,37.7167,-25.4333,291.42,64,8,4.28,PT,1723415707
101,port mathurin,-19.6833,63.4167,295.59,69,93,10.86,MU,1723415708
102,caluula,11.9661,50.7569,304.39,58,80,1.3,SO,1723415710
103,xining,36.6167,101.7667,284.25,76,1,1.62,CN,1723415422
104,georgetown,5.4112,100.3354,299.12,80,20,5.66,MY,1723415504
105,kimbe,-5.5502,150.1429,302.03,68,39,1.07,PG,1723415714
106,panaba,21.2833,-88.2667,304.16,62,76,6.59,MX,1723415716
107,new norfolk,-42.7826,147.0587,281.8,72,67,1.33,AU,1723415717
108,port elizabeth,-33.918,25.5701,287.31,86,75,9.77,ZA,1723415713
109,kalifornsky,60.4183,-151.29,288.3,82,75,8.23,US,1723415720
110,hami,42.8,93.45,303.08,27,100,7.94,CN,1723415721
111,bethanie,-26.4833,17.15,284.45,52,0,1.29,NA,1723415723
112,luganville,-15.5333,167.1667,299.11,74,100,6.29,VU,1723415724
113,road town,18.4167,-64.6167,303.17,74,75,3.09,VG,1723415725
114,turpan,42.9333,89.1667,303.98,32,35,1.94,CN,1723415727
115,shira,54.4911,89.9531,286.01,86,100,1.09,RU,1723415728
116,eydhafushi,5.1033,73.0708,299.17,88,100,9.91,MV,1723415729
117,kuanda,56.3161,116.0806,295.19,59,41,0.85,RU,1723415611
118,tikhvin,59.6451,33.5294,283.68,95,69,1.12,RU,1723415731
119,iqaluit,63.7506,-68.5145,281.0,71,20,7.2,CA,1723415732
120,sao jose da coroa grande,-8.8978,-35.1478,297.83,79,17,3.94,BR,1723415733
121,stanley,54.868,-1.6985,287.89,73,0,1.54,GB,1723415621
122,uturoa,-16.7333,-151.4333,298.3,81,58,5.95,PF,1723415737
123,polyarnyy,69.1989,33.4478,284.66,76,13,2.19,RU,1723415738
124,port douglas,-16.4833,145.4667,294.47,82,98,2.0,AU,1723415740
125,newman,37.3138,-121.0208,313.82,11,67,4.03,US,1723415741
126,walvis bay,-22.9575,14.5053,287.02,83,1,6.59,NA,1723415742
127,palikir - national government center,6.9248,158.1611,304.56,70,20,2.06,FM,1723415743
128,badger,64.8,-147.5333,289.1,51,75,2.57,US,1723415745
129,merizo village,13.2658,144.6691,302.25,87,99,3.03,GU,1723415746
130,kapa'a,22.0752,-159.319,301.75,67,20,7.2,US,1723415548
131,petropavlovsk-kamchatsky,53.0452,158.6483,284.48,100,100,3.0,RU,1723415748
132,qaqortoq,60.7167,-46.0333,279.66,91,100,2.22,GL,1723415749
133,tiksi,71.6872,128.8694,273.38,72,92,4.49,RU,1723415751
134,camp swift,30.1908,-97.2922,308.81,53,2,1.34,US,1723415752
135,saimbeyli,37.9863,36.0906,284.77,67,0,4.94,TR,1723415753
136,ghanzi,-21.5667,21.7833,289.69,12,1,3.41,BW,1723415755
137,olinda,-8.0089,-34.8553,300.0,74,40,2.57,BR,1723415756
138,veraval,20.9,70.3667,299.97,86,100,7.5,IN,1723415757
139,kuala terengganu,5.3302,103.1408,297.12,94,20,1.54,MY,1723415758
140,talnakh,69.4865,88.3972,287.52,59,86,1.24,RU,1723415593
141,port moresby,-9.4431,147.1797,298.83,89,75,2.06,PG,1723415761
142,raduzhny,62.0961,77.475,283.72,94,97,3.67,RU,1723415762
143,meadow lakes,61.6247,-149.6011,286.09,91,100,1.34,US,1723415763
144,masterton,-40.9597,175.6575,286.27,64,63,5.03,NZ,1723415764
145,el granada,37.5027,-122.4694,294.29,85,75,6.69,US,1723415765
146,tangalle,6.024,80.7911,298.96,88,95,4.75,LK,1723415767
147,sao joao do piaui,-8.3581,-42.2467,304.42,28,42,1.39,BR,1723415768
148,west bay,19.3667,-81.4167,305.4,70,20,4.63,KY,1723415769
149,huilong,31.8111,121.655,302.18,86,78,2.46,CN,1723415770
150,flying fish cove,-10.4217,105.6791,296.97,73,40,5.66,CX,1723415771
151,hammerfest,70.6634,23.6821,291.4,59,74,1.03,NO,1723415772
152,salalah,17.0151,54.0924,298.2,94,100,3.09,OM,1723415773
153,jawhar,2.7809,45.5005,296.28,87,51,5.86,SO,1723415775
154,langzhong,31.5504,105.9938,297.53,89,0,0.96,CN,1723415776
155,chulakkurgan,43.765,69.1814,297.06,35,0,1.6,KZ,1723415777
156,morehead,37.2711,-87.1764,300.85,51,0,3.09,US,1723415778
157,'ain el turk,35.7438,-0.7693,299.53,89,40,2.06,DZ,1723415780
158,howard springs,-12.497,131.047,294.19,97,7,3.97,AU,1723415781
159,lospalos,-8.5186,127.0025,294.79,78,59,3.06,TL,1723415782
160,nemuro,43.3236,145.575,290.29,100,100,2.87,JP,1723415783
161,constantia,44.1833,28.65,296.38,64,0,2.74,RO,1723415784
162,namibe,-15.1961,12.1522,290.91,89,72,1.09,AO,1723415589
163,puerto ayora,-0.7393,-90.3518,294.01,89,57,3.58,EC,1723415787
164,kasimov,54.9411,41.3953,284.21,97,41,3.15,RU,1723415788
165,karratha,-20.7377,116.8463,293.47,56,2,1.39,AU,1723415789
166,hadibu,12.65,54.0333,298.99,80,58,8.24,YE,1723415790
167,taber,49.8167,-112.1518,302.15,23,35,2.06,CA,1723415791
168,kasongo-lunda,-6.4667,16.8167,296.09,31,4,1.17,CD,1723415792
169,uzhur,55.3036,89.8339,285.47,86,99,1.56,RU,1723415793
170,puerto santa,-8.9906,-78.6456,290.57,79,51,5.19,PE,1723415794
171,whitehorse,60.7161,-135.0538,288.6,54,75,10.29,CA,1723415795
172,val-d'or,48.1002,-77.7828,292.2,63,75,3.09,CA,1723415797
173,beau vallon,-20.4189,57.6953,295.28,73,20,6.17,MU,1723415798
174,sokolka,53.4072,23.5023,285.19,89,0,3.7,PL,1723415799
175,camabatela,-8.1881,15.375,289.89,77,2,2.01,AO,1723415800
176,port alfred,-33.5906,26.891,286.03,82,84,1.79,ZA,1723415801
177,asau,46.4333,26.4,291.95,70,0,2.37,RO,1723415802
178,tafuna,-14.3358,-170.72,298.12,88,100,5.66,AS,1723415803
179,saint-pierre,-21.3393,55.4781,293.97,68,75,2.06,RE,1723415804
180,kapuskasing,49.4169,-82.4331,293.2,68,75,2.06,CA,1723415806
181,indramayu,-6.3264,108.32,296.3,68,91,4.38,ID,1723415807
182,vadso,70.0744,29.7487,285.24,94,40,6.69,NO,1723415808
183,afaahiti,-17.75,-149.2833,296.54,86,55,4.92,PF,1723415809
184,saldanha,-33.0117,17.9442,285.29,81,70,0.39,ZA,1723415770
185,kirakira,-10.4544,161.9205,299.1,83,100,7.02,SB,1723415811
186,remire-montjoly,4.9167,-52.2667,301.17,78,0,2.57,GF,1723415812
187,bredasdorp,-34.5322,20.0403,283.61,85,98,2.08,ZA,1723415813
188,tara,56.8944,74.371,283.68,84,95,1.7,RU,1723415815
189,turkmenbasy,40.0222,52.9552,303.58,35,0,8.23,TM,1723415816
190,klyuchi,52.2667,79.1667,285.16,67,45,1.06,RU,1723415817
191,ribeira grande,38.5167,-28.7,294.14,73,51,2.68,PT,1723415818
192,canutama,-6.5339,-64.3831,301.55,41,78,0.17,BR,1723415819
193,hithadhoo,-0.6,73.0833,300.93,75,62,8.64,MV,1723415820
194,touros,-5.1989,-35.4608,299.67,63,78,6.27,BR,1723415821
195,eraan,9.0629,117.7016,298.99,85,84,1.75,PH,1723415822
196,tazovsky,67.4667,78.7,283.2,96,100,5.0,RU,1723415824
197,padang,-0.9492,100.3543,297.33,88,7,1.7,ID,1723415826
198,kayangel,8.0823,134.7173,301.45,72,95,1.69,PW,1723415827
199,dahanu,19.9667,72.7333,300.17,86,98,4.62,IN,1723415828
200,zhob,31.3411,69.4481,300.06,60,86,0.3,PK,1723415829
201,carnarvon,-24.8667,113.6333,292.51,80,100,5.23,AU,1723415830
202,fort st. john,56.2499,-120.8529,303.09,26,20,3.6,CA,1723415831
203,tauranga,-37.6861,176.1667,287.01,81,73,2.24,NZ,1723415833
204,tambopata,-12.7333,-69.1833,300.09,57,0,1.03,PE,1723415834
205,firuzabad,28.8438,52.5707,301.93,34,46,1.57,IR,1723415835
206,dudinka,69.4058,86.1778,285.75,60,96,6.78,RU,1723415836
207,huarmey,-10.0681,-78.1522,291.2,78,65,4.61,PE,1723415839
208,carutapera,-1.195,-46.02,299.57,76,10,4.77,BR,1723415840
209,alice springs,-23.7,133.8833,278.9,81,0,2.06,AU,1723415841
210,elliot lake,46.3834,-82.6331,289.14,66,100,2.79,CA,1723415842
211,kruisfontein,-34.0033,24.7314,284.66,80,66,7.49,ZA,1723415843
212,kidal,18.4411,1.4078,303.43,45,100,5.57,ML,1723415844
213,lompoc,34.6391,-120.4579,292.55,68,0,6.69,US,1723415846
214,saint-joseph,-21.3667,55.6167,293.71,73,18,4.69,RE,1723415847
215,siyabuswa,-25.1132,29.0445,289.7,12,57,2.94,ZA,1723415848
216,tyukalinsk,55.8732,72.1967,285.44,80,96,2.44,RU,1723415849
217,celestun,20.8667,-90.4,302.84,74,100,6.79,MX,1723415850
218,alaghsas,17.0187,8.0168,300.57,68,91,0.88,NE,1723415851
219,aasiaat,68.7098,-52.8699,276.42,96,79,2.8,GL,1723415852
220,mechanicville,42.9029,-73.6873,297.46,64,47,4.47,US,1723415787
221,lockhart,28.6194,-81.4426,299.2,89,20,3.09,US,1723415856
222,harper,4.375,-7.7169,297.65,89,100,4.65,LR,1723415857
223,pedregulho,-20.2569,-47.4767,286.93,26,6,2.49,BR,1723415858
224,khovd,48.0056,91.6419,292.69,41,100,2.11,MN,1723415859
225,aykhal,66.0,111.5,283.64,68,100,1.53,RU,1723415861
226,bubaque,11.2833,-15.8333,298.46,86,100,3.6,GW,1723415862
227,tuam,53.5167,-8.85,291.02,93,100,6.04,IE,1723415863
228,bodo,67.28,14.405,288.17,94,75,5.14,NO,1723415864
229,klaksvik,62.2266,-6.589,284.1,91,100,3.14,FO,1723415743
230,qamdo,31.1667,97.2333,276.14,63,12,1.28,CN,1723415866
231,antsiranana,-12.2787,49.2917,295.66,80,9,6.14,MG,1723415867
232,iskateley,67.6803,53.1512,287.14,68,98,3.66,RU,1723415868
233,severo-yeniseyskiy,60.3725,93.0408,282.34,97,55,1.98,RU,1723415870
234,codrington,-38.2667,141.9667,284.67,68,98,6.8,AU,1723415871
235,udachny,66.4167,112.4,284.5,59,93,1.36,RU,1723415872
236,barrouallie,13.2333,-61.2667,300.94,84,40,5.14,VC,1723415873
237,mbanza kongo,-6.267,14.2401,294.21,76,2,2.28,AO,1723415874
238,buta,2.7858,24.73,294.49,99,100,0.46,CD,1723415875
239,olyokminsk,60.3736,120.4264,293.29,54,65,1.44,RU,1723415876
240,mega,4.05,38.3,289.38,70,75,6.1,ET,1723415878
241,serenje,-13.2325,30.2352,286.63,40,0,1.56,ZM,1723415879
242,atafu village,-8.5421,-172.5159,301.78,74,13,8.08,TK,1723415880
243,north bend,43.4065,-124.2243,291.1,77,40,8.75,US,1723415881
244,talcahuano,-36.7167,-73.1167,286.97,72,0,4.63,CL,1723415882
245,tlahualilo de zaragoza,26.1167,-103.45,307.46,22,90,3.24,MX,1723415883
246,tura,25.5198,90.2201,297.15,97,57,2.26,IN,1723415884
247,coquimbo,-29.9533,-71.3436,287.0,88,0,3.09,CL,1723415607
248,cihuatlan,19.2366,-104.5651,303.97,70,75,5.14,MX,1723415887
249,kinarut,5.8231,116.0466,298.16,94,20,1.54,MY,1723415888
250,bedesa,8.9,40.7833,289.73,86,27,2.65,ET,1723415889
251,al kharijah,25.4514,30.5464,306.29,23,43,4.61,EG,1723415890
252,chimoio,-19.1164,33.4833,289.89,35,0,0.51,MZ,1723415891
253,dunedin,-45.8742,170.5036,280.82,72,47,5.81,NZ,1723415893
254,itoman,26.1247,127.6694,303.16,84,20,2.57,JP,1723415895
255,saint-francois,46.4154,3.9054,296.84,73,0,1.54,FR,1723415896
256,longboat key,27.4125,-82.659,303.71,71,0,3.09,US,1723415765
257,novyy turtkul',41.55,61.0167,301.17,31,92,3.04,UZ,1723415898
258,nalut,30.3333,10.85,302.03,25,0,4.16,LY,1723415899
259,isangel,-19.55,169.2667,297.21,73,75,5.66,VU,1723415900
260,luanda,-8.8368,13.2343,293.15,94,40,1.54,AO,1723415901
261,nieuw amsterdam,5.8833,-55.0833,303.16,70,20,5.14,SR,1723415903
262,la passe,45.5549,-0.8967,300.61,40,0,5.88,FR,1723415904
263,itacoatiara,-3.1431,-58.4442,301.75,48,7,1.53,BR,1723415905
264,kone,-21.0595,164.8658,296.11,70,100,2.99,NC,1723415906
265,vanimo,-2.6741,141.3028,300.1,82,89,2.16,PG,1723415907
266,ntoum,0.3833,9.7833,297.42,84,96,2.01,GA,1723415908
267,quepos,9.4236,-84.1652,300.17,83,82,1.88,CR,1723415909
268,sierra grande,-41.606,-65.3557,280.94,48,5,1.68,AR,1723415911
269,hsinchu,24.8036,120.9686,300.31,80,3,0.45,TW,1723415796
270,zhangatas,43.5667,69.75,296.97,37,0,3.44,KZ,1723415913
271,coahuayana de hidalgo,18.7,-103.6583,301.0,83,100,1.17,MX,1723415914
272,santa quiteria,-4.3319,-40.1567,301.02,47,27,3.3,BR,1723415915
273,siwa oasis,29.2041,25.5195,302.66,42,2,4.12,EG,1723415916
274,kolyvan',55.3053,82.7391,283.84,89,22,1.85,RU,1723415917
275,gutao,37.2025,112.1781,293.56,67,0,1.5,CN,1723415918
276,bayanhongor,46.7167,100.1167,285.27,60,33,1.58,MN,1723415919
277,cururupu,-1.8283,-44.8683,296.79,86,30,1.03,BR,1723415923
278,san jose de jachal,-30.2406,-68.7469,283.64,22,0,1.79,AR,1723415924
279,ketchikan,55.3422,-131.6461,294.41,56,0,5.66,US,1723415925
280,szentlorinc,46.0402,17.9872,298.48,45,25,1.3,HU,1723415926
281,nova sintra,14.8667,-24.7167,299.4,80,99,2.44,CV,1723415927
282,sinop,41.7711,34.8709,290.71,70,0,1.61,TR,1723415928
283,crucecita,-28.95,-58.9833,285.69,34,19,3.45,AR,1723415929
284,cova figueira,14.8905,-24.2934,293.46,81,84,1.51,CV,1723415930
285,puerto baquerizo moreno,-0.9,-89.6,297.7,65,40,6.17,EC,1723415757
286,neverkino,52.7854,46.7417,288.03,88,97,5.07,RU,1723415934
287,santa cruz,-17.8,-63.1667,295.85,37,17,4.12,BO,1723415111
288,escanaba,45.7453,-87.0646,295.13,60,75,4.63,US,1723415936
289,san patricio,28.017,-97.5169,306.62,53,3,7.22,US,1723415937
290,singrauli,24.1997,82.6753,297.23,90,92,1.08,IN,1723415938
291,egilsstadir,65.2653,-14.3948,282.1,87,75,2.57,IS,1723415939
292,puerto aysen,-45.4,-72.7,277.63,99,100,1.87,CL,1723415941
293,gemena,3.25,19.7667,294.05,98,74,0.86,CD,1723415942
294,aioun,16.6614,-9.6149,306.18,49,38,6.49,MR,1723415943
295,villa gesell,-37.2639,-56.973,280.22,72,79,14.01,AR,1723415944
296,manistee,44.2445,-86.3242,294.12,64,100,2.06,US,1723415945
297,kazaure,12.6513,8.4162,298.22,78,31,3.97,NG,1723415946
298,ust'-ilimsk,58.0006,102.6619,288.43,94,95,4.3,RU,1723415675
299,tadine,-21.55,167.8833,294.94,67,97,7.43,NC,1723415948
300,guatrache,-37.6678,-63.5302,279.63,59,5,3.58,AR,1723415949
301,mount gambier,-37.8333,140.7667,284.4,68,23,4.95,AU,1723415679
302,nar'yan-mar,67.6713,53.087,287.17,69,98,3.7,RU,1723415952
303,kampong thom,12.7111,104.8887,298.16,97,100,1.83,KH,1723415953
304,yaren,-0.5472,166.916,301.66,74,100,4.18,NR,1723415954
305,den burg,53.0542,4.7972,292.13,72,0,7.2,NL,1723415955
306,nguigmi,14.2495,13.1092,300.63,70,98,5.25,NE,1723415956
307,lakkha nevre,43.6103,45.2454,297.3,60,9,2.11,RU,1723415957
308,praia da vitoria,38.7333,-27.0667,295.29,68,20,3.44,PT,1723415958
309,yanbu,24.0891,38.0637,310.17,15,0,5.14,SA,1723415959
310,fairmont,39.4851,-80.1426,297.82,50,96,0.89,US,1723415961
311,alofi,-19.0595,-169.9187,297.09,60,40,4.63,NU,1723415962
312,haiku-pauwela,20.9219,-156.3051,303.24,70,20,9.26,US,1723415963
313,nampula,-15.1165,39.2666,292.12,94,0,3.6,MZ,1723415964
314,saryozek,44.3583,77.9753,291.19,44,69,1.24,KZ,1723415965
315,karoi,-16.8099,29.6925,288.51,32,0,1.18,ZW,1723415966
316,atlanta,33.749,-84.388,306.25,46,0,5.14,US,1723415936
317,vila velha,-20.3297,-40.2925,294.12,77,40,1.54,BR,1723415879
318,mpika,-11.8343,31.4529,287.02,47,3,2.04,ZM,1723415969
319,tsiombe,-25.3,45.4833,292.39,74,0,1.77,MG,1723415971
320,gadzhiyevo,69.2551,33.3362,284.22,79,16,2.13,RU,1723415972
321,xingtai,37.0631,114.4942,298.65,60,0,2.11,CN,1723415973
322,anadyr,64.75,177.4833,284.43,62,20,9.83,RU,1723415974
323,manaure,11.7751,-72.4445,301.96,74,100,5.54,CO,1723415975
324,puerto asis,0.5133,-76.5007,297.57,86,72,1.33,CO,1723415976
325,beroroha,-21.6667,45.1667,290.69,53,0,0.62,MG,1723415977
326,arno,60.1167,18.6333,286.58,63,62,7.16,SE,1723415978
327,warsaw,52.2298,21.0118,291.84,60,0,9.83,PL,1723415979
328,znin,52.8496,17.7199,287.09,76,32,2.02,PL,1723415981
329,inongo,-1.95,18.2667,294.84,77,68,2.47,CD,1723415982
330,fale old settlement,-9.3852,-171.2468,301.13,77,16,7.89,TK,1723415765
331,pollock pines,38.7613,-120.5866,302.54,24,95,1.34,US,1723415984
332,pandaria,22.2333,81.4167,298.47,88,98,2.16,IN,1723415985
333,vernon,50.2581,-119.2691,304.89,23,25,2.57,CA,1723415986
334,kisaran,2.9845,99.6158,296.37,100,100,0.92,ID,1723415987
335,zin'kiv,50.2081,34.3638,288.16,59,10,3.7,UA,1723415988
336,hasaki,35.7333,140.8333,302.01,82,63,7.89,JP,1723415953
337,ubatuba,-23.4339,-45.0711,286.7,65,64,2.25,BR,1723415991
338,puerto san jose,13.9256,-90.8244,302.66,78,96,4.84,GT,1723415992
339,baruun-urt,46.6806,113.2792,291.0,61,0,0.85,MN,1723415993
340,pandan,14.0453,124.1694,301.39,83,98,2.8,PH,1723415995
341,kiunga,-6.1219,141.2906,296.68,98,100,1.06,PG,1723415996
342,brigantine,39.4101,-74.3646,301.26,55,0,5.14,US,1723415997
343,fisterra,42.9049,-9.2629,291.6,94,50,2.13,ES,1723415998
344,holualoa,19.6228,-155.9522,301.79,75,0,6.69,US,1723415791
345,natal,-5.795,-35.2094,298.27,83,40,3.6,BR,1723416003
346,amal,59.051,12.7049,287.98,66,7,3.35,SE,1723416004
347,tuy hoa,13.0833,109.3,299.54,83,86,2.35,VN,1723416005
348,belabo,4.9333,13.3,293.63,100,100,0.92,CM,1723416006
349,smithers,54.7804,-127.1743,301.33,34,20,3.6,CA,1723416007
350,mount pearl,47.5166,-52.7813,292.22,89,75,3.09,CA,1723415906
351,korla,41.7597,86.1469,297.96,38,35,4.94,CN,1723416010
352,kikwit,-5.041,18.8162,300.59,36,60,0.9,CD,1723416011
353,fort bragg,35.139,-79.006,303.0,66,100,2.57,US,1723416012
354,santana,-0.0583,-51.1817,299.25,89,75,2.57,BR,1723416013
355,amos,48.5669,-78.1162,287.95,76,100,3.13,CA,1723416014
356,bunia,1.5667,30.25,290.44,91,65,1.12,CD,1723416015
357,fallon,39.4735,-118.7774,307.1,14,72,1.34,US,1723416016
358,okha,53.5739,142.9478,286.42,88,100,7.5,RU,1723416018
359,kemijarvi,66.7131,27.4306,285.91,88,98,3.38,FI,1723416019
360,muisne,0.6,-80.0333,297.47,84,82,5.25,EC,1723416020
361,fier,40.7239,19.5561,297.37,55,0,1.43,AL,1723416021
362,mooloolaba,-26.6833,153.1167,290.4,99,100,0.89,AU,1723416022
363,laguna,38.421,-121.4238,306.25,30,0,5.14,US,1723416023
364,markovo,57.3206,107.0881,291.85,93,73,1.89,RU,1723416024
365,alotau,-10.3069,150.4462,300.16,80,90,2.22,PG,1723416025
366,diplo,24.4667,69.584,301.21,80,100,7.09,PK,1723416027
367,cootamundra,-34.65,148.0333,284.11,75,0,3.46,AU,1723416028
368,katsuura,35.1333,140.3,302.06,82,48,8.36,JP,1723416029
369,mangrol,21.1167,70.1167,300.21,86,100,7.92,IN,1723416030
370,taoudenni,22.6783,-3.9836,311.25,10,0,5.9,ML,1723416031
371,tidjikja,18.5564,-11.4271,302.09,57,100,8.68,MR,1723416032
372,guiuan,11.0333,125.7247,301.7,77,96,2.61,PH,1723416033
373,colonia,50.9333,6.95,295.51,67,0,4.12,DE,1723416034
374,wynyard,-41.0,145.7167,283.35,84,34,2.26,AU,1723416036
375,qaisumah,28.3112,46.1273,309.13,11,0,2.06,SA,1723416037
376,nasiriyah,31.0521,46.261,311.02,15,2,3.75,IQ,1723416038
377,ciudad bolivar,8.1222,-63.5497,301.69,64,91,0.68,VE,1723416039
378,rensselaer,42.7168,-73.4829,291.38,81,84,1.43,US,1723415962
379,dongola,19.1667,30.4833,308.26,38,2,5.67,SD,1723416041
380,alvaraes,-3.2208,-64.8042,303.11,48,86,0.59,BR,1723416042
381,guanica,17.9716,-66.908,303.92,83,14,5.49,PR,1723416043
382,lago da pedra,-4.3333,-45.1667,302.37,36,46,2.47,BR,1723416044
383,broken hill,-31.95,141.4333,287.69,55,0,4.39,AU,1723416046
384,tupiza,-21.45,-65.7167,281.14,11,100,3.57,BO,1723416047
385,kourou,5.1552,-52.6478,299.49,83,72,3.28,GF,1723416048
386,howrah,22.5892,88.3103,302.15,94,40,2.57,IN,1723416049
387,magdagachi,53.45,125.8,291.32,76,100,1.53,RU,1723416050
388,korba,22.35,82.6833,298.22,93,77,0.74,IN,1723416051
389,sarakhs,36.5449,61.1577,300.14,22,0,1.98,IR,1723416052
390,jiangyou,31.7667,104.7167,294.73,73,4,2.14,CN,1723416053
391,gbadolite,4.2833,21.0167,294.18,86,96,1.24,CD,1723416054
392,rio verde,21.9333,-99.9833,299.66,56,100,6.42,MX,1723415875
393,gaogou,34.0175,119.1886,299.47,85,70,1.94,CN,1723416057
394,mirnyy,62.5353,113.9611,285.71,80,97,3.8,RU,1723416058
395,hopelchen,19.7667,-89.85,307.17,43,100,2.26,MX,1723416059
396,pagar alam,-4.0167,103.2667,292.02,96,88,0.69,ID,1723416061
397,likiep,9.8251,169.3107,301.24,79,81,6.2,MH,1723416062
398,kodinsk,58.6881,99.1844,286.57,96,77,3.1,RU,1723416063
399,chibougamau,49.9168,-74.3659,290.94,72,100,2.57,CA,1723416065
400,cherdyn',60.403,56.4787,284.22,96,100,1.37,RU,1723416066
401,chongjin,41.7956,129.7758,295.98,96,100,1.93,KP,1723416067
402,santa rita,-7.1139,-34.9781,298.52,83,20,3.09,BR,1723416068
403,monistrol-sur-loire,45.2833,4.1667,293.67,69,7,1.7,FR,1723416069
404,al burayqah,30.4062,19.5739,301.14,70,0,6.94,LY,1723416070
405,tabuk,17.4189,121.4443,298.66,81,78,1.13,PH,1723416071
406,mednogorsk,51.4128,57.595,289.68,71,71,3.0,RU,1723416072
407,koulamoutou,-1.1303,12.4736,298.05,74,84,1.19,GA,1723416073
408,ulsteinvik,62.3432,5.8487,286.9,89,70,1.34,NO,1723416075
409,alo,6.5486,4.2686,297.61,89,91,3.6,NG,1723416076
410,dar chioukh,34.8964,3.4854,299.43,33,52,3.65,DZ,1723416077
411,pielavesi,63.2333,26.75,283.24,96,20,1.3,FI,1723416078
412,ballina,-28.8667,153.5667,288.85,94,99,3.58,AU,1723416079
413,yuzhno-kurilsk,44.0306,145.8556,290.87,99,100,2.42,RU,1723416080
414,chenzhou,25.8,113.0333,299.63,90,100,0.67,CN,1723416081
415,ghat,24.9647,10.1728,305.01,21,8,5.03,LY,1723416082
416,demopolis,32.5176,-87.8364,306.12,35,0,2.06,US,1723416084
417,tondi,9.7333,79.0167,301.28,79,100,3.75,IN,1723416085
418,viedma,-40.8135,-62.9967,278.27,76,50,3.03,AR,1723416086
419,gualaceo,-2.9,-78.7833,288.16,94,95,1.92,EC,1723416087
420,pacific grove,36.6177,-121.9166,293.38,87,0,4.12,US,1723416088
421,prince rupert,54.3161,-130.3201,289.2,83,40,6.69,CA,1723416090
422,loa janan,-0.583,117.095,296.12,98,59,0.76,ID,1723416091
423,nanning,22.8167,108.3167,299.76,90,100,0.58,CN,1723416093
424,aquidauana,-20.4711,-55.7872,289.43,38,93,1.29,BR,1723416094
425,selfoss,63.9331,-20.9971,283.34,87,94,0.99,IS,1723416095
426,taksimo,56.3444,114.8794,294.81,60,26,0.25,RU,1723416096
427,ustyuzhna,58.8394,36.4321,283.82,96,72,1.82,RU,1723416097
428,hacienda huancane,-15.8222,-70.8856,278.12,21,82,5.36,PE,1723416098
429,okhotsk,59.3833,143.3,287.15,82,100,4.27,RU,1723416099
430,tual,-5.6667,132.75,298.25,86,60,9.34,ID,1723416101
431,sitka,57.0531,-135.33,289.09,67,100,5.14,US,1723416103
432,san andres,12.5847,-81.7006,301.16,89,20,2.06,CO,1723415847
433,lagoa,39.05,-27.9833,294.76,58,13,3.89,PT,1723416105
434,al qadarif,14.0349,35.3834,295.45,90,100,1.79,SD,1723416106
435,abrisham,32.558,51.5731,306.59,17,62,1.68,IR,1723416107
436,lepsy,46.235,78.9456,293.71,46,54,2.08,KZ,1723416108
437,nogliki,51.8333,143.1667,285.37,93,100,3.41,RU,1723416109
438,carolina beach,34.0352,-77.8936,301.49,85,83,4.83,US,1723416110
439,inhambane,-23.865,35.3833,294.22,64,0,5.19,MZ,1723416111
440,patnongon,10.9132,121.9937,300.64,81,100,1.6,PH,1723416113
441,rongelap,11.1635,166.8941,301.37,78,100,7.63,MH,1723416114
442,lazaro cardenas,17.9583,-102.2,302.28,74,76,3.6,MX,1723416115
443,kant,27.8,79.8,299.87,87,99,3.16,IN,1723416116
444,pernik,42.6,23.0333,292.83,51,0,1.31,BG,1723416117
445,'ain el hadjar,34.7585,0.1453,301.28,27,35,2.09,DZ,1723416118
446,correntina,-13.3433,-44.6367,299.04,33,97,2.06,BR,1723416119
447,castelli,-25.9468,-60.6195,288.42,36,0,2.01,AR,1723416120
448,ciudad guayana,8.3533,-62.6528,302.33,76,100,2.2,VE,1723416121
449,chonchi,-42.6128,-73.8092,279.72,94,98,1.53,CL,1723416123
450,libreville,0.3925,9.4537,297.65,84,83,4.3,GA,1723416124
451,kharp,66.8014,65.8081,286.63,57,100,3.62,RU,1723416125
452,port sudan,19.6175,37.2164,306.58,51,16,2.67,SD,1723416126
453,villa emilio carranza,19.9667,-96.6,297.63,89,100,4.71,MX,1723416127
454,boromo,11.75,-2.9333,297.62,90,100,2.05,BF,1723416128
455,fortuna,40.5982,-124.1573,292.55,80,40,7.2,US,1723416129
456,tazacorte,28.629,-17.9293,295.69,93,75,6.69,ES,1723416130
457,tabas,33.5959,56.9244,306.39,16,0,1.03,IR,1723416131
458,krasavino,60.9614,46.4814,286.89,72,100,2.66,RU,1723416134
459,coron,11.9986,120.2043,300.62,83,81,1.26,PH,1723416135
460,peterhead,57.5058,-1.7981,286.44,85,91,6.4,GB,1723416137
461,tra vinh,9.9347,106.3453,298.03,96,51,1.62,VN,1723416014
462,carbonear,47.7332,-53.2148,290.5,93,62,2.41,CA,1723416139
463,awjilah,29.1081,21.2869,303.24,32,4,6.62,LY,1723416140
464,as suwayq,23.8494,57.4386,303.3,75,21,3.13,OM,1723416141
465,mount isa,-20.7333,139.5,290.02,63,0,2.06,AU,1723416143
466,taro,-8.3862,115.28,289.91,88,68,0.19,ID,1723416144
467,tolanaro,-25.0319,46.9987,294.19,83,0,7.2,MG,1723416145
468,el porvenir,13.7617,-87.3458,303.28,70,45,0.42,HN,1723416146
469,paka,4.6374,103.4368,298.11,78,100,1.54,MY,1723416147
470,arteche,12.2645,125.4048,299.43,91,70,1.31,PH,1723416148
471,faya-largeau,17.9257,19.1043,304.65,54,99,4.73,TD,1723416149
472,mogadishu,2.0371,45.3438,297.59,84,59,8.0,SO,1723416150
473,agat village,13.3886,144.6585,303.35,87,40,1.34,GU,1723416152
474,deerfield,42.1711,-87.8445,299.07,44,20,5.14,US,1723416153
475,manavalakurichi,8.1333,77.3,299.15,86,99,6.51,IN,1723416154
476,loikaw,19.6742,97.2094,294.28,93,100,1.39,MM,1723416155
477,taitung city,22.7583,121.1444,299.3,94,0,1.54,TW,1723416156
478,yemel'yanovo,56.1681,92.6767,283.6,100,91,0.0,RU,1723416157
479,tateyama,34.9833,139.8667,302.42,79,51,8.63,JP,1723416158
480,kingston,17.997,-76.7936,302.68,74,40,4.12,JM,1723416159
481,rakops,-21.0167,24.3333,291.27,15,0,0.76,BW,1723416160
482,beloyarskiy,63.7119,66.6722,284.68,98,100,2.03,RU,1723416161
483,karaton,-6.3424,106.1045,294.2,95,48,0.4,ID,1723416163
484,westport,41.1415,-73.3579,298.59,70,9,0.89,US,1723416164
485,daru,-9.0763,143.2092,298.39,89,68,5.18,PG,1723416165
486,yung shue wan,22.2333,114.1167,303.01,90,100,4.18,HK,1723416166
487,alesund,62.4723,6.1549,285.56,76,100,4.63,NO,1723416167
488,minas de marcona,-15.2119,-75.1103,284.84,80,52,5.45,PE,1723416168
489,madang,-5.2246,145.7966,300.04,83,57,0.52,PG,1723416169
490,conceicao da barra,-18.5933,-39.7322,294.87,73,100,1.72,BR,1723416170
491,jiuquan,39.7432,98.5174,295.1,17,44,1.05,CN,1723416173
492,sona,45.4388,10.8255,299.66,74,0,1.54,IT,1723416174
493,jwaneng,-24.6004,24.7303,285.43,32,39,4.26,BW,1723416175
494,saipan,15.1355,145.701,300.54,94,0,3.09,MP,1723416176
495,tocopilla,-22.092,-70.1979,291.23,69,100,2.59,CL,1723416177
496,ola,59.5833,151.2833,286.06,86,100,5.38,RU,1723416178
497,skeldon,5.8833,-57.1333,299.09,82,75,2.04,GY,1723416179
498,bandar-e anzali,37.4727,49.4622,299.47,71,36,3.72,IR,1723416181
499,es castell,39.8795,4.2854,300.53,83,20,4.12,ES,1723416182
500,port saint john's,-31.6229,29.5448,290.65,82,84,5.47,ZA,1723416183
501,funafuti,-8.5243,179.1942,301.15,78,100,9.26,TV,1723416184
502,xunchang,28.4543,104.715,293.78,85,62,1.74,CN,1723416185
503,borgo,46.0514,11.4544,298.85,88,93,17.88,IT,1723416186
504,al'met'yevsk,54.9044,52.3154,287.09,96,100,2.41,RU,1723415914
505,bamboo flat,11.7,92.7167,299.2,94,40,1.03,IN,1723416188
506,acarau,-2.8856,-40.12,298.36,83,36,8.42,BR,1723416189
507,shangqiu,34.45,115.65,298.33,82,0,1.84,CN,1723415951
508,ziniare,12.5822,-1.2983,296.59,86,100,2.51,BF,1723416192
509,kulachi,31.9286,70.4592,304.44,61,100,4.07,PK,1723416193
510,horta,38.5333,-28.6333,293.72,73,51,2.24,PT,1723416194
511,san juan chamelco,15.4333,-90.3333,295.6,73,100,3.09,GT,1723416200
512,baie-comeau,49.2168,-68.1489,293.97,60,75,7.2,CA,1723415924
513,colorado,-22.8375,-51.9731,287.87,32,100,2.4,BR,1723416202
514,sudogda,55.9539,40.8629,284.1,97,18,2.31,RU,1723416203
515,kutum,14.2,24.6667,295.32,81,100,2.76,SD,1723415999
516,gillette,44.2911,-105.5022,298.21,41,40,5.66,US,1723416206
517,francistown,-21.17,27.5079,291.66,15,0,2.69,BW,1723416207
518,vila do maio,15.1333,-23.2167,299.23,83,100,2.67,CV,1723416208
519,san jose del guaviare,2.5729,-72.6459,298.01,85,22,0.29,CO,1723416209
520,nicoya,10.1483,-85.452,300.25,85,51,1.31,CR,1723415928
521,bagong sikat,12.3675,121.0617,301.02,81,60,2.33,PH,1723416211
522,queenstown,-31.8976,26.8753,281.83,66,87,2.44,ZA,1723416212
523,maun,-19.9833,23.4167,290.3,17,0,1.97,BW,1723416214
524,samarinda,-0.5,117.15,296.17,98,61,0.77,ID,1723416215
525,gaspe,48.8334,-64.4819,294.27,68,40,2.57,CA,1723416216
526,severobaykal'sk,55.65,109.3167,289.25,90,98,1.84,RU,1723416218
527,itaituba,-4.2761,-55.9836,301.83,55,45,1.14,BR,1723416219
528,taroa,8.7058,171.2275,301.34,77,45,3.85,MH,1723416220
529,marka,1.7159,44.7717,297.27,84,48,7.23,SO,1723416221
530,bossangoa,6.4926,17.4552,294.98,93,77,1.09,CF,1723416222
531,al muwayh,22.4333,41.7583,303.51,18,27,3.12,SA,1723416224
532,dzhalagash,45.0833,64.6667,297.22,36,3,4.19,KZ,1723416074
533,virginia,37.5481,-77.4467,302.14,63,75,2.57,US,1723416227
534,ngereklmadel,7.4883,134.4856,301.2,89,75,0.0,PW,1723416228
535,french rocks,12.5006,76.6733,294.91,89,93,2.0,IN,1723416229
536,aldan,58.6031,125.3894,292.82,64,64,1.72,RU,1723416230
537,formosa,-26.1775,-58.1781,285.91,64,0,1.94,AR,1723416025
538,eagle mountain,40.3141,-112.0069,305.23,32,61,4.47,US,1723416232
539,sao vicente,-23.9631,-46.3919,288.7,26,95,2.29,BR,1723416203
540,zhalantun,48.0,122.7167,292.84,84,45,2.07,CN,1723416235
541,thunder bay,48.4001,-89.3168,300.14,34,75,4.63,CA,1723416236
542,robore,-18.3333,-59.75,290.87,43,61,1.76,BO,1723416237
543,belyy yar,53.6039,91.3903,288.09,94,40,1.0,RU,1723416238
544,jinchang,38.4953,102.1739,295.15,35,0,1.71,CN,1723416239
545,fatehpur sikri,27.1,77.6667,299.07,90,100,2.06,IN,1723416240
546,thinadhoo,0.5333,72.9333,300.99,78,88,7.27,MV,1723416241
547,la'ie,21.6477,-157.9253,301.54,74,22,2.68,US,1723416242
548,kununurra,-15.7667,128.7333,289.14,72,6,0.51,AU,1723416243
549,sabang,5.8933,95.3214,300.8,74,100,8.02,ID,1723416245
550,bhongir,17.5108,78.8889,297.2,84,98,3.02,IN,1723416246
551,malangawa,26.8568,85.5581,299.56,78,66,1.87,NP,1723416247
552,ipira,-12.1583,-39.7372,295.75,79,11,7.32,BR,1723416248
553,balaipungut,1.05,101.2833,296.14,99,98,1.16,ID,1723416250
554,watsa,3.0372,29.5355,290.68,99,74,0.77,CD,1723416251
555,koz'modem'yansk,56.3367,46.5711,287.29,99,100,1.94,RU,1723416252
556,liberia,6.5,-9.5,294.91,99,74,1.32,LR,1723416253
557,kargasok,59.0556,80.8572,282.54,92,90,3.16,RU,1723416254
558,kalyazin,57.2403,37.8433,282.6,99,61,3.07,RU,1723416257
559,orimattila,60.8049,25.7296,285.98,88,88,3.93,FI,1723416258
560,steinbach,50.1667,8.5667,296.65,69,0,4.12,DE,1723416259
561,pul-e khumri,35.9446,68.7151,298.6,28,0,1.22,AF,1723416260
562,peniche,39.3558,-9.3811,294.32,91,4,5.64,PT,1723416261
563,piacabucu,-10.4056,-36.4344,297.26,85,93,3.54,BR,1723416262
564,kabare,-2.4683,28.8242,291.09,71,36,0.15,CD,1723416266
565,kuching,1.55,110.3333,299.27,93,40,1.54,MY,1723416267
566,buala,-8.145,159.5921,299.43,85,100,7.0,SB,1723416268
567,cruzeiro do sul,-29.5128,-51.9853,282.76,93,5,2.07,BR,1723416269
568,petrozavodsk,61.7849,34.3469,282.85,100,34,1.0,RU,1723416271
569,moose jaw,50.4001,-105.5344,301.3,21,40,3.6,CA,1723416272
570,la ronge,55.1001,-105.2842,299.29,34,75,2.57,CA,1723416273
571,volchikha,52.0333,80.3833,284.05,80,35,0.98,RU,1723416274
572,ephrata,40.1798,-76.1788,298.68,56,0,5.66,US,1723416275
573,salym,60.0625,71.4789,281.37,97,77,2.45,RU,1723416276
574,cestos city,5.46,-9.5828,298.28,86,82,4.7,LR,1723416277
575,ovalle,-30.5983,-71.2003,292.95,49,0,1.6,CL,1723416278
576,vrangel',42.7297,133.0839,292.44,83,69,6.57,RU,1723416279
577,la rinconada,37.4873,-5.9826,298.25,78,0,2.06,ES,1723416280
578,arkhangel'sk,64.5401,40.5433,287.21,82,0,3.0,RU,1723416282
579,pangoa,-12.1167,-73.0,295.05,74,34,1.26,PE,1723416283
