City_ID,City,Lat,Lng,Max Temp,Humidity,Cloudiness,Wind Speed,Country,Date
0,whitehorse,60.7161,-135.0538,288.04,54,84,10.28,CA,1723410744
1,mirny,62.5353,113.9611,284.65,83,99,3.88,RU,1723410745
2,west island,-12.1568,96.8225,300.14,78,20,7.72,CC,1723410746
3,san patricio,28.017,-97.5169,308.6,45,5,6.85,US,1723410747
4,kaa-khem,51.6833,94.7333,288.62,91,100,0.67,RU,1723410748
5,petropavlovsk-kamchatsky,53.0452,158.6483,283.48,100,100,0.0,RU,1723410749
6,ushuaia,-54.8,-68.3,272.18,94,49,0.73,AR,1723410590
7,port-aux-francais,-49.35,70.2167,277.02,97,100,11.63,TF,1723410751
8,port lavaca,28.615,-96.6261,306.51,71,1,5.63,US,1723410752
9,barakani,-12.1356,44.4317,297.59,74,66,1.05,KM,1723410754
10,waitangi,-43.9535,-176.5597,284.16,75,64,2.24,NZ,1723410755
11,sault ste. marie,46.5168,-84.3333,291.31,68,100,5.66,CA,1723410630
12,college,64.8569,-147.8028,288.14,55,75,0.0,US,1723410757
13,nizhniy kuranakh,58.8353,125.4869,289.37,82,39,1.51,RU,1723410758
14,longyearbyen,78.2186,15.6401,291.06,48,0,4.12,SJ,1723410759
15,atafu village,-8.5421,-172.5159,301.84,72,15,8.24,TK,1723410760
16,saint-francois,46.4154,3.9054,299.84,69,0,1.54,FR,1723410761
17,qurayyat,31.3318,37.3428,300.25,47,0,3.09,SA,1723410762
18,ribeira grande,38.5167,-28.7,296.37,56,20,2.57,PT,1723410763
19,dudinka,69.4058,86.1778,285.99,59,96,7.48,RU,1723410765
20,albany,42.6001,-73.9662,295.86,67,73,3.26,US,1723410766
21,okhotsk,59.3833,143.3,286.9,83,100,3.24,RU,1723410768
22,wailua homesteads,22.0669,-159.378,300.59,74,0,7.72,US,1723410769
23,bethel,41.3712,-73.414,300.95,57,20,4.63,US,1723410770
24,pedernales,18.0384,-71.744,302.7,72,31,3.41,DO,1723410771
25,carnforth,54.1167,-2.7667,292.42,70,6,3.58,GB,1723410772
26,kourou,5.1552,-52.6478,300.71,76,92,3.26,GF,1723410773
27,panacan,9.2463,118.4082,299.86,83,100,0.81,PH,1723410774
28,blackmans bay,-43.0167,147.3167,279.55,91,67,0.45,AU,1723410776
29,st. john's,47.5649,-52.7093,293.86,87,92,0.89,CA,1723410669
30,labrador city,52.9463,-66.9114,295.1,64,75,5.66,CA,1723410778
31,isafjordur,66.0755,-23.124,280.06,90,100,2.98,IS,1723410779
32,ilulissat,69.2167,-51.1,288.16,38,89,6.69,GL,1723410780
33,alice springs,-23.7,133.8833,277.9,81,0,2.06,AU,1723410781
34,uturoa,-16.7333,-151.4333,298.62,77,62,4.97,PF,1723410782
35,morristown,36.214,-83.2949,302.2,52,0,1.54,US,1723410783
36,samut prakan,13.5,100.45,301.35,75,100,4.52,TH,1723410785
37,avarua,-21.2078,-159.775,296.18,56,75,1.54,CK,1723410786
38,papatowai,-46.5619,169.4708,279.66,79,91,8.44,NZ,1723410787
39,thompson,55.7435,-97.8558,305.29,22,23,1.64,CA,1723410788
40,grytviken,-54.2811,-36.5092,263.91,65,76,1.79,GS,1723410789
41,klyuchi,52.2667,79.1667,285.58,66,66,1.15,RU,1723410790
42,luderitz,-26.6481,15.1594,287.33,91,0,5.77,NA,1723410791
43,afaahiti,-17.75,-149.2833,296.4,87,59,4.92,PF,1723410792
44,flin flon,54.7682,-101.865,302.79,28,12,3.55,CA,1723410793
45,nova sintra,14.8667,-24.7167,299.24,80,98,2.4,CV,1723410795
46,nuuk,64.1835,-51.7216,280.49,81,75,3.09,GL,1723410796
47,new norfolk,-42.7826,147.0587,277.65,96,45,1.56,AU,1723410797
48,martapura,-3.4167,114.85,297.2,94,78,0.51,ID,1723410799
49,kodiak,57.79,-152.4072,288.88,51,75,2.57,US,1723410800
50,yellowknife,62.456,-114.3525,295.44,64,100,7.2,CA,1723410801
51,la ronge,55.1001,-105.2842,295.88,41,10,3.66,CA,1723410802
52,hawaiian paradise park,19.5933,-154.9731,299.75,86,100,1.54,US,1723410804
53,vershino-darasunskiy,52.35,115.5167,286.62,71,5,1.08,RU,1723410805
54,sinop,41.7711,34.8709,291.22,67,0,1.88,TR,1723410806
55,adamstown,-25.066,-130.1015,291.23,62,86,8.34,PN,1723410807
56,bredasdorp,-34.5322,20.0403,284.1,84,100,2.47,ZA,1723410808
57,igrim,63.1906,64.4162,284.58,89,54,2.93,RU,1723410809
58,mikhaylovka,50.06,43.2379,292.49,66,83,4.0,RU,1723410810
59,borazjan,29.2666,51.2159,308.82,45,100,2.65,IR,1723410811
60,lakatoro,-16.0999,167.4164,298.37,76,99,7.53,VU,1723410812
61,saquarema,-22.92,-42.5103,291.37,77,90,2.78,BR,1723410814
62,los altos,37.3852,-122.1141,301.78,58,40,7.2,US,1723410815
63,chittagong,22.9167,91.5,298.98,92,100,2.88,BD,1723410816
64,vieux-habitants,16.0589,-61.7659,302.61,70,4,5.34,GP,1723410817
65,dryden,49.7833,-92.7503,298.72,40,98,3.16,CA,1723410818
66,pauini,-7.7136,-66.9764,306.55,27,33,0.86,BR,1723410819
67,lihue,21.9789,-159.3672,300.92,71,0,7.72,US,1723410820
68,puerto natales,-51.7236,-72.4875,278.4,75,100,3.6,CL,1723410821
69,ndende,-2.4008,11.3581,297.29,77,72,1.75,GA,1723410822
70,keflavik,64.0049,-22.5624,285.39,76,75,4.12,IS,1723410824
71,qaqortoq,60.7167,-46.0333,279.64,91,100,4.8,GL,1723410825
72,paranhos,-23.8928,-55.4311,288.22,41,77,0.96,BR,1723410826
73,ust-nera,64.5667,143.2,288.79,72,98,2.63,RU,1723410827
74,swakopmund,-22.6833,14.5333,286.47,82,10,4.91,NA,1723410631
75,invercargill,-46.4,168.35,280.94,76,73,6.26,NZ,1723410829
76,sao felix do xingu,-6.6447,-51.995,306.16,28,13,1.31,BR,1723410830
77,kalaleh,37.3807,55.4916,298.72,83,95,2.75,IR,1723410831
78,mermoz boabab,14.7065,-17.4758,300.09,84,100,5.62,SN,1723410832
79,la sarre,48.8002,-79.1996,287.04,77,100,4.22,CA,1723410834
80,bogale,16.2833,95.4,299.11,93,100,2.54,MM,1723410835
81,el playon,7.4713,-73.2031,300.25,70,36,1.2,CO,1723410836
82,chonchi,-42.6128,-73.8092,280.97,88,99,0.91,CL,1723410837
83,hermanus,-34.4187,19.2345,286.12,73,98,4.32,ZA,1723410838
84,san antonio de pale,-1.4014,5.6325,296.3,86,97,3.57,GQ,1723410839
85,aasiaat,68.7098,-52.8699,276.51,96,79,2.9,GL,1723410840
86,katsuren-haebaru,26.3369,127.8719,301.58,89,0,1.54,JP,1723410789
87,caala,-12.8525,15.5606,290.13,19,0,1.32,AO,1723410843
88,talnakh,69.4865,88.3972,285.79,65,77,1.57,RU,1723410844
89,natal,-5.795,-35.2094,298.51,83,20,3.09,BR,1723410845
90,preobrazheniye,42.9019,133.9064,290.64,93,46,4.27,RU,1723410846
91,muli,2.9167,73.5667,298.9,89,100,8.04,MV,1723410847
92,bridgewater,44.3835,-64.5155,299.32,53,2,2.68,CA,1723410687
93,iqaluit,63.7506,-68.5145,278.43,74,16,7.43,CA,1723410578
94,olonkinbyen,70.9221,-8.7187,276.12,89,100,5.36,SJ,1723410850
95,port lincoln,-34.7333,135.8667,286.52,64,0,5.52,AU,1723410851
96,levuka,50.1834,-105.4011,300.31,21,0,3.0,CA,1723410854
97,mil'kovo,55.6078,37.7956,288.9,62,19,4.01,RU,1723410855
98,tiksi,71.6872,128.8694,272.57,82,94,4.83,RU,1723410856
99,luganville,-15.5333,167.1667,298.51,75,100,6.09,VU,1723410857
100,pregradnaya,43.9508,41.1994,291.52,80,100,1.48,RU,1723410858
101,mejit,10.2753,170.8646,301.23,79,15,6.3,MH,1723410859
102,mana,5.6592,-53.7767,299.55,87,98,3.55,GF,1723410860
103,edinburgh of the seven seas,-37.0676,-12.3116,287.92,91,100,11.87,SH,1723410861
104,aswan,24.0934,32.907,310.26,16,44,8.43,EG,1723410862
105,kingston,17.997,-76.7936,301.02,91,36,1.12,JM,1723410794
106,zouerate,22.7187,-12.4521,310.38,15,27,0.29,MR,1723410865
107,molteno,-31.3968,26.3625,280.82,64,74,4.93,ZA,1723410866
108,puerto ayora,-0.7393,-90.3518,294.57,87,53,4.02,EC,1723410867
109,bilibino,68.0546,166.4372,280.52,84,100,5.9,RU,1723410868
110,sabang,5.8933,95.3214,300.84,76,100,11.8,ID,1723410870
111,shimoda,34.6667,138.95,300.83,88,25,5.51,JP,1723410871
112,georgetown,5.4112,100.3354,301.11,74,20,1.03,MY,1723410873
113,socorro,31.6546,-106.3033,311.52,17,75,3.6,US,1723410874
114,xilin hot,43.9667,116.0333,287.27,97,100,3.0,CN,1723410875
115,lalupon,7.4667,4.0667,296.12,87,74,2.14,NG,1723410876
116,smithers,54.7804,-127.1743,298.35,47,47,3.18,CA,1723410877
117,port hedland,-20.3167,118.5667,289.18,82,0,2.06,AU,1723410878
118,constantia,44.1833,28.65,296.79,70,0,3.34,RO,1723410879
119,jamestown,42.097,-79.2353,292.05,75,75,6.69,US,1723410734
120,stanley,54.868,-1.6985,289.0,68,0,2.06,GB,1723410881
121,kangavar,34.5043,47.9653,301.22,18,97,2.3,IR,1723410883
122,palikir - national government center,6.9248,158.1611,301.56,74,40,1.54,FM,1723410884
123,villa mercedes,-33.6757,-65.4578,286.28,23,0,4.75,AR,1723410885
124,cluain meala,52.355,-7.7039,290.37,97,84,3.78,IE,1723410886
125,newman,37.3138,-121.0208,312.9,11,60,0.35,US,1723410887
126,key west,24.5557,-81.7826,307.15,70,0,5.66,US,1723410888
127,akobo,7.4344,3.9497,295.87,86,71,2.09,NG,1723410889
128,chernyshevskiy,63.0128,112.4714,284.15,95,100,4.13,RU,1723410890
129,monte argentario,42.4345,11.1195,300.11,75,100,2.81,IT,1723410891
130,machico,32.7,-16.7667,297.6,76,20,6.69,PT,1723410892
131,kerikeri,-35.2268,173.9474,285.32,92,97,0.89,NZ,1723410894
132,port alfred,-33.5906,26.891,286.58,81,90,2.24,ZA,1723410895
133,carovigno,40.708,17.655,298.74,55,0,3.34,IT,1723410896
134,pisco,-13.7,-76.2167,290.18,82,75,2.06,PE,1723410897
135,khash,28.2211,61.2158,301.89,19,0,1.66,IR,1723410898
136,mercedes,-34.6515,-59.4307,284.05,55,7,7.27,AR,1723410899
137,masterton,-40.9597,175.6575,283.51,77,38,3.6,NZ,1723410900
138,fortuna,40.5982,-124.1573,293.11,79,20,5.66,US,1723410901
139,santa cruz,-17.8,-63.1667,298.85,31,21,4.12,BO,1723410901
140,takoradi,4.8845,-1.7554,297.29,90,100,4.39,GH,1723410904
141,kailua-kona,19.6406,-155.9956,302.75,76,20,6.69,US,1723410905
142,turpan,42.9333,89.1667,304.1,34,46,2.29,CN,1723410906
143,salinopolis,-0.6136,-47.3561,300.44,78,55,6.78,BR,1723410907
144,isangel,-19.55,169.2667,295.18,78,91,8.03,VU,1723410908
145,al kharijah,25.4514,30.5464,307.87,22,67,5.84,EG,1723410909
146,fada,7.25,4.0667,295.93,89,84,1.65,NG,1723410911
147,ma'rib,15.4591,45.3253,299.9,55,100,3.91,YE,1723410912
148,arraial do cabo,-22.9661,-42.0278,293.07,73,0,1.54,BR,1723410913
149,ghadamis,30.1337,9.5007,305.29,21,0,3.77,LY,1723410914
150,cabinda,-5.55,12.2,294.91,92,4,3.76,AO,1723410915
151,pointe aux piments,-20.0628,57.5131,296.22,73,52,8.3,MU,1723410916
152,daru,-9.0763,143.2092,297.56,91,70,4.9,PG,1723410917
153,mount gambier,-37.8333,140.7667,282.01,71,39,4.13,AU,1723410918
154,port elizabeth,-33.918,25.5701,287.77,81,68,2.24,ZA,1723410820
155,polovinnoye,54.7914,65.9864,286.98,60,100,2.6,RU,1723410921
156,lompoc,34.6391,-120.4579,293.09,68,0,6.17,US,1723410922
157,opuwo,-18.0607,13.84,292.78,15,0,1.91,NA,1723410923
158,moree,-29.4667,149.85,284.89,78,85,2.86,AU,1723410924
159,papao,-17.75,-149.55,297.67,85,77,5.99,PF,1723410925
160,utrik,11.2278,169.8474,301.12,79,79,7.59,MH,1723410926
161,grand-bassam,5.2118,-3.7388,297.01,92,99,3.8,CI,1723410927
162,kapa'a,22.0752,-159.319,301.33,72,0,7.72,US,1723410928
163,minas de marcona,-15.2119,-75.1103,288.33,62,18,6.6,PE,1723410929
164,saint-philippe,-21.3585,55.7679,294.73,76,40,6.42,RE,1723410930
165,enewetak,11.3474,162.3373,301.78,75,100,6.79,MH,1723410932
166,loja,-3.9931,-79.2042,292.95,61,84,2.38,EC,1723410934
167,anadyr,64.75,177.4833,283.43,66,0,10.0,RU,1723410935
168,laguna,38.421,-121.4238,306.03,37,0,4.63,US,1723410936
169,west bay,19.3667,-81.4167,306.19,66,20,5.66,KY,1723410937
170,kalmunai,7.4167,81.8167,299.24,87,82,6.03,LK,1723410938
171,kinarut,5.8231,116.0466,298.16,94,20,2.06,MY,1723410939
172,mudanya,40.3753,28.8822,296.35,78,0,3.56,TR,1723410940
173,belomorsk,64.5232,34.7668,285.48,98,100,0.5,RU,1723410942
174,magadan,59.5667,150.8,285.24,91,100,3.96,RU,1723410943
175,kampong thom,12.7111,104.8887,298.07,97,100,1.45,KH,1723410944
176,puerto baquerizo moreno,-0.9,-89.6,297.7,65,40,4.12,EC,1723410945
177,brookings,44.3114,-96.7984,295.15,60,20,3.09,US,1723410795
178,margaret river,-33.95,115.0667,287.62,78,70,9.49,AU,1723410947
179,devils lake,48.1128,-98.8651,296.45,38,0,3.6,US,1723410948
180,ramona,33.0417,-116.8681,307.27,46,99,0.89,US,1723410949
181,shiyan,32.6475,110.7781,296.42,64,0,2.35,CN,1723410951
182,udachny,66.4167,112.4,283.24,66,96,0.91,RU,1723410952
183,tromso,69.6496,18.957,290.16,82,20,3.09,NO,1723410953
184,hadibu,12.65,54.0333,298.95,81,40,7.64,YE,1723410954
185,mokhsogollokh,61.4681,128.9203,287.98,90,73,1.32,RU,1723410955
186,lensk,60.7253,114.9278,289.34,87,58,1.52,RU,1723410956
187,ust'-dzheguta,44.0834,41.9763,293.28,68,39,3.6,RU,1723410957
188,tarawa,1.419,172.984,304.2,70,40,3.09,KI,1723410958
189,remire-montjoly,4.9167,-52.2667,303.17,70,0,4.63,GF,1723410959
190,vilyuysk,63.7553,121.6247,281.59,75,13,1.69,RU,1723410960
191,dalandzadgad,43.5708,104.425,293.6,56,1,2.79,MN,1723410962
192,deoli,25.75,75.3833,298.85,89,100,3.65,IN,1723410963
193,klaksvik,62.2266,-6.589,284.45,87,100,2.4,FO,1723410964
194,ixtapa,20.7,-105.2,304.94,66,75,4.12,MX,1723410965
195,ancud,-41.8697,-73.8203,281.81,82,99,2.17,CL,1723410966
196,bonthe,7.5264,-12.505,298.06,86,100,4.3,SL,1723410969
197,sao joao da barra,-21.6403,-41.0511,294.04,67,78,6.16,BR,1723410971
198,el paujil,1.5701,-75.3286,300.22,69,60,0.52,CO,1723410972
199,bereket,39.2446,55.5154,302.16,56,5,6.96,TM,1723410973
200,cabedelo,-6.9811,-34.8339,298.94,72,94,4.67,BR,1723410929
201,pueblo nuevo,23.3833,-105.3833,292.97,64,99,2.67,MX,1723410975
202,chiaravalle,43.6027,13.3246,301.92,66,38,1.54,IT,1723410768
203,mariental,-24.6333,17.9667,289.26,16,58,3.57,NA,1723410978
204,fuling,29.7022,107.3919,297.28,91,3,0.96,CN,1723410980
205,holualoa,19.6228,-155.9522,300.68,78,20,6.69,US,1723410981
206,lebu,-37.6167,-73.65,283.67,80,21,5.96,CL,1723410982
207,alotau,-10.3069,150.4462,297.25,94,96,1.77,PG,1723410983
208,abeche,13.8292,20.8324,296.62,85,100,1.47,TD,1723410984
209,novyy urengoy,66.0833,76.6333,285.07,97,100,2.57,RU,1723410985
210,punta del este,-34.9667,-54.95,283.64,80,15,13.86,UY,1723410986
211,puerto deseado,-47.7503,-65.8938,279.06,76,100,0.68,AR,1723410979
212,kilju,40.9642,129.3278,295.77,100,100,0.97,KP,1723410988
213,saldanha,-33.0117,17.9442,285.59,82,61,1.11,ZA,1723410989
214,caluula,11.9661,50.7569,303.73,62,68,2.75,SO,1723410991
215,midvagur,62.0511,-7.1939,284.61,93,75,0.51,FO,1723410992
216,port mathurin,-19.6833,63.4167,295.3,70,97,10.71,MU,1723410993
217,ta`u,-14.2336,-169.5144,298.58,80,78,10.42,AS,1723410994
218,miranda,3.2499,-76.2281,301.14,60,46,0.59,CO,1723410995
219,mahenge,-8.6833,36.7167,289.49,64,65,0.58,TZ,1723410996
220,rio grande,-32.035,-52.0986,285.31,69,82,7.32,BR,1723410997
221,alofi,-19.0595,-169.9187,297.09,53,81,4.63,NU,1723410998
222,bela vista,-22.1089,-56.5211,293.58,20,100,2.24,BR,1723410999
223,codrington,-38.2667,141.9667,282.11,69,100,5.43,AU,1723411000
224,crieff,56.3727,-3.8389,284.94,94,59,2.14,GB,1723411002
225,cienaga de oro,8.8744,-75.6203,303.03,76,87,2.85,CO,1723411003
226,santa marta de ortigueira,43.6833,-7.85,294.96,83,54,0.89,ES,1723411004
227,fale old settlement,-9.3852,-171.2468,301.14,78,19,7.25,TK,1723411005
228,island harbour,50.724,-1.2758,295.92,78,61,2.68,GB,1723411006
229,shalkar,47.8288,59.6258,297.04,34,59,2.79,KZ,1723411007
230,akureyri,65.6835,-18.0878,283.11,81,75,3.09,IS,1723411008
231,marovoay,-16.1,46.6333,295.88,57,32,2.45,MG,1723411009
232,richland center,43.3347,-90.3868,296.25,54,13,3.2,US,1723411010
233,kargasok,59.0556,80.8572,285.04,83,97,3.11,RU,1723411013
234,armacao de buzios,-22.7469,-41.8817,292.46,73,61,3.55,BR,1723411014
235,vila velha,-20.3297,-40.2925,294.23,75,0,2.57,BR,1723411015
236,pointe michel,15.25,-61.3833,302.25,73,16,7.07,DM,1723411016
237,kalianget,-7.05,113.9333,297.51,69,3,3.98,ID,1723411017
238,thunder bay,48.4001,-89.3168,298.48,40,86,0.18,CA,1723411019
239,biryusinsk,55.9634,97.8235,285.89,97,86,1.83,RU,1723411020
240,nungwi,-5.7265,39.2987,298.03,80,4,4.99,TZ,1723410792
241,tazovsky,67.4667,78.7,283.96,93,100,4.76,RU,1723411022
242,rundu,-17.9333,19.7667,291.35,15,0,2.7,NA,1723411024
243,east london,-33.0153,27.9116,289.67,58,100,7.59,ZA,1723411025
244,ormara,25.2088,64.6357,300.85,84,100,6.19,PK,1723411026
245,dallas,32.7668,-96.7836,310.01,48,75,4.63,US,1723410981
246,xinqing,48.2333,129.5,293.29,100,100,0.86,CN,1723411028
247,dauphin,51.1494,-100.0502,301.41,31,37,0.99,CA,1723411019
248,iskateley,67.6803,53.1512,287.9,73,99,3.23,RU,1723411030
249,vordingborg,55.008,11.9106,290.16,72,100,5.95,DK,1723411031
250,salalah,17.0151,54.0924,298.2,94,100,3.09,OM,1723411032
251,dakhla,23.6848,-15.958,292.94,93,3,7.63,EH,1723411033
252,binka,21.0333,83.8,299.33,89,97,1.72,IN,1723411035
253,kone,-21.0595,164.8658,294.91,78,100,1.75,NC,1723411036
254,raichur,16.2,77.3667,299.65,75,100,5.18,IN,1723411037
255,guapiles,10.2159,-83.7866,302.96,64,75,2.55,CR,1723411038
256,aras-asan,8.8908,126.3033,298.35,89,100,3.57,PH,1723411039
257,konosha,60.9736,40.257,285.21,98,100,1.45,RU,1723411040
258,dor marunt,44.45,26.9167,297.15,45,0,2.19,RO,1723411041
259,st ives,50.2086,-5.4875,291.73,84,34,8.41,GB,1723411042
260,lagarto,-10.9172,-37.65,295.73,84,22,3.95,BR,1723410759
261,melekeok village,7.4957,134.6367,299.46,89,75,0.0,PW,1723411044
262,rongelap,11.1635,166.8941,301.21,79,100,8.16,MH,1723411046
263,sao gabriel da cachoeira,-0.1303,-67.0892,301.44,71,57,0.97,BR,1723411047
264,trelleborg,55.3751,13.1569,290.34,72,71,6.74,SE,1723411048
265,grand-lahou,5.1367,-5.0242,296.72,94,94,4.17,CI,1723411049
266,berezovyy,51.6667,135.7,289.98,100,100,0.96,RU,1723411050
267,touros,-5.1989,-35.4608,299.53,66,57,6.16,BR,1723411051
268,ponta delgada,37.7333,-25.6667,296.55,64,20,6.17,PT,1723411052
269,san fernando,15.0286,120.6898,298.61,89,58,0.9,PH,1723411053
270,saipan,15.1355,145.701,302.54,84,40,0.0,MP,1723411055
271,agria,47.9026,20.3733,296.15,59,7,3.18,HU,1723411056
272,yanjiang,30.1211,104.6481,297.27,90,50,0.88,CN,1723411057
273,tolanaro,-25.0319,46.9987,294.19,88,0,7.2,MG,1723411058
274,mossel bay,-34.1831,22.146,285.44,82,100,6.38,ZA,1723411059
275,punta arenas,-53.15,-70.9167,278.21,87,0,2.06,CL,1723410803
276,shendi,16.6915,33.4341,306.8,46,100,3.95,SD,1723411062
277,miyako,39.6367,141.9525,297.69,98,100,10.96,JP,1723411064
278,brigantine,39.4101,-74.3646,301.56,49,0,3.6,US,1723411065
279,zhirnov,48.1709,41.1261,297.98,37,100,7.04,RU,1723411066
280,vorgashor,67.5833,63.95,282.86,65,95,4.31,RU,1723411067
281,san pedro pochutla,15.7333,-96.4667,303.71,71,95,3.16,MX,1723411068
282,manokwari,-0.8667,134.0833,299.01,71,76,1.81,ID,1723411069
283,pakxan,18.3778,103.6601,297.54,98,100,1.16,LA,1723411070
284,bamboo flat,11.7,92.7167,300.24,82,90,4.63,IN,1723411071
285,olyokminsk,60.3736,120.4264,288.97,70,87,1.36,RU,1723411073
286,koratla,18.8167,78.7167,297.65,89,100,2.07,IN,1723411074
287,al jawf,29.5,38.75,300.95,16,0,2.51,SA,1723411075
288,chul'man,56.8479,124.9104,286.13,86,0,1.15,RU,1723411077
289,esquel,-42.9,-71.3167,277.9,83,71,2.5,AR,1723410802
290,topolobampo,25.6,-109.05,306.1,58,40,6.17,MX,1723411079
291,zemio,5.0314,25.1361,293.22,93,100,1.21,CF,1723411081
292,ratnagiri,16.9833,73.3,299.51,86,51,1.77,IN,1723411082
293,verdal,63.7933,11.4817,284.56,91,100,8.37,NO,1723411083
294,moussoro,13.6408,16.4901,302.2,65,100,3.3,TD,1723411084
295,hasaki,35.7333,140.8333,300.95,84,50,6.76,JP,1723411085
296,villa gesell,-37.2639,-56.973,280.69,75,87,14.14,AR,1723411086
297,necochea,-38.5473,-58.7368,280.41,71,32,11.3,AR,1723411003
298,ocean shores,46.9737,-124.1563,291.49,86,100,5.66,US,1723411088
299,solnechnyy,50.7214,136.6319,289.48,100,100,1.44,RU,1723411089
300,pombal,-6.7703,-37.8017,305.83,24,12,3.89,BR,1723411090
301,usinsk,65.9939,57.5281,285.01,77,30,2.44,RU,1723411092
302,abong mbang,3.9833,13.1833,294.63,94,96,1.16,CM,1723411093
303,lorengau,-2.0226,147.2712,300.49,81,95,2.97,PG,1723411094
304,nova soure,-11.2333,-38.4833,298.14,67,29,7.69,BR,1723411095
305,jardim,-21.4803,-56.1381,293.14,23,100,2.32,BR,1723411096
306,wenatchee,47.4235,-120.3103,305.95,30,0,3.6,US,1723411097
307,gaalkacyo,6.7697,47.4308,298.08,62,14,8.87,SO,1723411098
308,floro,61.5996,5.0328,286.13,76,20,3.09,NO,1723411099
309,zhongxing,33.7039,118.6792,297.78,84,57,1.04,CN,1723411100
310,tura,25.5198,90.2201,297.35,95,43,2.5,IN,1723411101
311,nikolayevsk-on-amure,53.1406,140.73,287.32,92,100,1.16,RU,1723411103
312,yaren,-0.5472,166.916,301.9,72,100,4.07,NR,1723411104
313,bubaque,11.2833,-15.8333,298.4,86,100,4.21,GW,1723411105
314,colonia,50.9333,6.95,296.07,64,0,4.12,DE,1723410994
315,crane,31.3974,-102.3501,310.23,22,0,7.98,US,1723411107
316,linxia chengguanzhen,35.6003,103.2064,287.1,54,0,2.56,CN,1723411108
317,jiuquan,39.7432,98.5174,295.3,15,6,1.07,CN,1723411110
318,egilsstadir,65.2653,-14.3948,282.1,87,75,2.57,IS,1723411112
319,the pas,53.8251,-101.2541,299.16,50,0,4.63,CA,1723411113
320,kasumkent,41.6773,48.146,293.73,72,47,2.95,RU,1723411114
321,matoury,4.8483,-52.3317,303.13,70,0,4.63,GF,1723410889
322,pundong,-7.9522,110.3486,294.02,82,14,2.57,ID,1723411120
323,chhagalnaiya,23.03,91.5069,298.62,94,100,2.51,BD,1723411122
324,antalaha,-14.9003,50.2788,293.82,91,84,2.43,MG,1723411123
325,lautoka,-17.6167,177.4667,298.07,57,40,5.66,FJ,1723411124
326,possneck,50.6936,11.5923,290.95,83,75,1.47,DE,1723411125
327,puerto aysen,-45.4,-72.7,277.83,100,100,1.71,CL,1723411126
328,cole harbour,44.6724,-63.4751,299.92,58,3,5.66,CA,1723411127
329,pithora,21.2667,82.5167,297.87,91,94,2.45,IN,1723411128
330,abu al matamir,30.9102,30.1744,298.07,70,0,2.14,EG,1723411129
331,yanykurgan,43.915,67.2481,299.9,23,4,3.45,KZ,1723411130
332,souillac,-20.5167,57.5167,295.36,78,20,5.66,MU,1723411132
333,miracema do tocantins,-9.5618,-48.3967,306.96,21,13,1.72,BR,1723411133
334,la palma,33.8464,-118.0467,305.7,54,40,4.12,US,1723411134
335,hailar,49.2,119.7,288.53,85,0,1.09,CN,1723411135
336,harstad,68.799,16.5293,287.38,98,100,4.92,NO,1723411136
337,turuntayevo,52.2,107.6167,290.05,92,97,0.92,RU,1723411137
338,gamba,-2.65,10.0,294.9,95,44,2.33,GA,1723411138
339,miri,4.4148,114.0089,298.23,94,40,1.03,MY,1723411139
340,lesnoy,57.6198,63.0784,284.95,75,100,1.72,RU,1723411140
341,nema,57.5067,50.5011,284.69,95,56,2.49,RU,1723411141
342,katsuura,35.1333,140.3,301.23,87,16,7.54,JP,1723411142
343,coruripe,-10.1256,-36.1756,296.86,87,94,4.24,BR,1723411144
344,haiku-pauwela,20.9219,-156.3051,302.16,70,20,9.26,US,1723411145
345,novomyrhorod,48.7811,31.642,293.36,51,86,4.13,UA,1723411146
346,mont-dore,-22.2833,166.5833,295.93,99,100,4.43,NC,1723411147
347,santa terezinha,-29.9002,-50.0904,288.42,59,1,5.87,BR,1723411148
348,rehoboth,-23.3167,17.0833,288.39,10,92,1.27,NA,1723411149
349,iwon-up,40.3231,128.6553,297.3,95,100,0.59,KP,1723411150
350,kohima,25.6667,94.1167,292.28,97,100,0.71,IN,1723411151
351,wakkanai,45.4094,141.6739,290.75,96,99,9.17,JP,1723411152
352,shaoxing,30.011,120.5715,299.55,84,100,1.27,CN,1723411155
353,sitka,57.0531,-135.33,288.09,67,100,5.14,US,1723411156
354,muroto-misakicho,33.2833,134.15,301.6,71,99,1.27,JP,1723411157
355,marica,-22.9194,-42.8186,291.81,75,85,3.86,BR,1723411158
356,jabal os saraj,35.1183,69.2378,291.37,42,0,5.1,AF,1723411159
357,hamilton,39.1834,-84.5333,299.77,47,75,6.69,US,1723411160
358,meulaboh,4.1363,96.1285,296.63,89,95,1.97,ID,1723411161
359,guerrero negro,27.9769,-114.0611,306.97,30,0,2.31,MX,1723411162
360,dul'durga,50.6761,113.5931,288.6,68,7,0.44,RU,1723411164
361,sinabang,2.4803,96.3801,297.86,86,68,2.83,ID,1723411094
362,amga,60.8953,131.9608,289.31,78,100,1.39,RU,1723411167
363,vilyuchinsk,52.9306,158.4028,287.4,85,100,1.11,RU,1723411168
364,sikonge,-5.6333,32.7667,294.11,31,68,1.81,TZ,1723411169
365,suva,-18.1416,178.4415,297.86,65,20,6.69,FJ,1723411170
366,broome,42.2506,-75.833,293.73,62,19,4.18,US,1723411171
367,galle,6.0367,80.217,299.55,85,97,5.57,LK,1723411026
368,san mariano,7.5,126.0,295.12,93,73,1.63,PH,1723411173
369,ocean city,39.2776,-74.5746,301.54,48,13,0.45,US,1723411079
370,mar del plata,-38.0023,-57.5575,281.53,84,44,10.28,AR,1723410871
371,williamston,35.8546,-77.0555,304.15,67,14,2.13,US,1723411176
372,kill devil hills,36.0307,-75.676,299.25,92,75,3.09,US,1723410997
373,pangody,65.85,74.4859,285.05,95,100,3.96,RU,1723411178
374,nishinoomote,30.7333,131.0,301.63,80,100,4.98,JP,1723411180
375,arno,60.1167,18.6333,288.6,51,51,7.65,SE,1723411181
376,nago,26.5881,127.9761,300.14,82,12,1.08,JP,1723411182
377,dunedin,-45.8742,170.5036,278.04,95,55,4.47,NZ,1723411183
378,la passe,45.5549,-0.8967,301.73,39,0,2.66,FR,1723411184
379,danville,36.586,-79.395,303.87,50,0,0.45,US,1723411089
380,swift current,50.2834,-107.8014,299.6,22,100,3.09,CA,1723411186
381,cruzeiro do sul,-29.5128,-51.9853,285.6,77,0,2.36,BR,1723411187
382,mount pearl,47.5166,-52.7813,293.33,85,98,1.34,CA,1723411189
383,khanty-mansiysk,61.0042,69.0019,286.21,94,20,3.0,RU,1723411190
384,nha trang,12.25,109.1833,299.58,78,89,1.59,VN,1723411191
385,listowel,52.4464,-9.485,290.55,92,100,7.47,IE,1723411192
386,nampula,-15.1165,39.2666,293.12,88,0,3.09,MZ,1723411193
387,trincomalee,8.5711,81.2335,301.1,78,100,2.35,LK,1723411194
388,phan rang-thap cham,11.5667,108.9833,298.73,92,87,2.16,VN,1723411195
389,cabo san lucas,22.8909,-109.9124,305.32,62,20,5.66,MX,1723411196
390,bambanglipuro,-7.95,110.2833,294.12,83,16,2.49,ID,1723411198
391,selfoss,63.9331,-20.9971,283.99,86,91,2.26,IS,1723411199
392,zhigulevsk,53.3997,49.4953,289.51,92,100,3.97,RU,1723411200
393,nar'yan-mar,67.6713,53.087,287.94,73,99,3.25,RU,1723411201
394,mantua,45.1667,10.7833,300.96,85,98,3.11,IT,1723411202
395,kavaratti,10.5669,72.642,300.36,85,100,6.4,IN,1723411153
396,palmer,42.1584,-72.3287,300.12,43,40,3.6,US,1723410975
397,manicore,-5.8092,-61.3003,309.5,27,52,0.77,BR,1723411206
398,castillos,-34.1667,-53.8333,282.29,63,8,6.83,UY,1723411207
399,trinidad,-14.8333,-64.9,302.14,34,9,2.06,BO,1723411208
400,laibin,23.7,109.2667,298.53,92,100,0.91,CN,1723411209
401,selkirk,50.1436,-96.8845,299.36,53,11,0.89,CA,1723411210
402,neryungri,56.6709,124.6491,286.65,80,0,1.11,RU,1723411211
403,nemuro,43.3236,145.575,290.2,100,100,2.83,JP,1723411212
404,kenora,49.8167,-94.4337,299.69,44,40,2.57,CA,1723411213
405,fethiye,36.6217,29.1164,302.01,50,1,2.02,TR,1723411216
406,drummondville,45.8834,-72.4824,293.32,84,33,5.31,CA,1723411028
407,farah,32.5,62.5,301.15,14,0,2.56,AF,1723411218
408,shira,54.4911,89.9531,286.18,84,100,0.49,RU,1723411219
409,tshikapa,-6.4167,20.8,299.22,20,11,0.52,CD,1723411221
410,letterkenny,54.95,-7.7333,291.03,85,83,6.54,IE,1723411222
411,capayan,-28.761,-66.0502,294.11,16,0,2.54,AR,1723411223
412,kokshetau,53.2775,69.3883,286.17,66,100,3.1,KZ,1723411224
413,bam,29.106,58.357,308.04,15,0,1.32,IR,1723411225
414,saudarkrokur,65.7461,-19.6394,282.67,88,100,1.13,IS,1723411226
415,badger,64.8,-147.5333,288.1,51,40,0.0,US,1723411228
416,north battleford,52.7834,-108.2847,299.2,29,0,4.12,CA,1723411229
417,carnarvon,-24.8667,113.6333,292.57,83,100,5.53,AU,1723411230
418,robbah,33.2797,6.9098,307.41,20,0,3.02,DZ,1723411231
419,touggourt,33.1053,6.058,306.21,22,0,1.54,DZ,1723411232
420,afif,23.9065,42.9172,304.61,16,69,4.71,SA,1723411233
421,tazacorte,28.629,-17.9293,295.69,92,0,6.17,ES,1723411234
422,khvoynaya,58.9,34.5333,284.14,97,72,1.6,RU,1723411235
423,san pedro de jujuy,-24.2313,-64.8661,295.94,15,100,3.61,AR,1723411236
424,waycross,31.2136,-82.354,308.18,55,40,2.57,US,1723411033
425,tvoroyri,61.5556,-6.8111,284.5,81,100,1.92,FO,1723411239
426,yemetsk,63.4721,41.7941,286.03,96,95,1.96,RU,1723411240
427,sorong,-0.8833,131.25,298.11,92,0,4.09,ID,1723411241
428,kirksville,40.1948,-92.5833,297.91,59,40,2.57,US,1723411242
429,marquette,46.5333,-87.6335,293.8,59,88,1.79,US,1723411082
430,ketchikan,55.3422,-131.6461,294.41,52,0,5.14,US,1723411244
431,las terrenas,19.311,-69.5428,305.08,74,40,4.12,DO,1723411245
432,linqiong,30.4159,103.4609,296.52,63,76,1.45,CN,1723411247
433,poputnaya,44.5125,41.4392,293.92,58,2,3.6,RU,1723411249
434,waingapu,-9.6567,120.2641,296.01,84,13,4.25,ID,1723411250
435,tsukawaki,33.2667,131.15,294.95,92,0,0.83,JP,1723411251
436,westport,41.1415,-73.3579,299.12,64,0,4.12,US,1723411088
437,emerald,-23.5333,148.1667,287.23,100,100,6.04,AU,1723411253
438,dukhan,25.4297,50.7858,306.82,67,6,1.72,QA,1723411254
439,uttarkashi,30.7333,78.45,290.85,89,81,1.19,IN,1723411255
440,guanica,17.9716,-66.908,304.47,81,13,6.84,PR,1723411256
441,phek,25.6667,94.5,292.72,99,100,0.28,IN,1723411257
442,morant bay,17.8815,-76.4093,303.31,69,10,5.34,JM,1723411258
443,maturin,9.75,-63.1767,306.06,94,70,2.06,VE,1723411260
444,arkhangel'sk,64.5401,40.5433,288.21,82,0,3.0,RU,1723411261
445,brokopondo,4.75,-55.1667,302.19,65,86,0.4,SR,1723411262
446,portage la prairie,49.9728,-98.2926,298.65,42,8,1.33,CA,1723411263
447,ilhabela,-23.7781,-45.3581,289.91,72,89,2.09,BR,1723411264
448,susuman,62.7833,148.1667,287.11,89,100,3.75,RU,1723411265
449,arkhara,49.4212,130.0842,292.28,100,100,1.46,RU,1723411267
450,dhuusamarreeb,5.535,46.3861,298.03,66,80,8.84,SO,1723411268
451,nyurba,63.2842,118.3319,280.78,74,47,1.57,RU,1723411270
452,vadso,70.0744,29.7487,286.24,88,0,6.69,NO,1723411271
453,la'ie,21.6477,-157.9253,301.54,75,16,3.58,US,1723411273
454,edd,13.9297,41.6925,304.8,76,100,5.44,ER,1723411274
455,poxoreo,-15.8372,-54.3892,301.85,20,36,2.97,BR,1723411276
456,dembi dolo,8.5333,34.8,287.42,95,100,1.42,ET,1723411278
457,gadzhiyevo,69.2551,33.3362,286.44,74,24,4.45,RU,1723411279
458,fort mcmurray,56.7268,-111.381,304.92,23,0,4.63,CA,1723411280
459,kamaishi,39.2667,141.8833,297.62,97,100,14.88,JP,1723411282
460,norfolk,42.1668,-71.2495,300.45,56,37,1.79,US,1723411283
461,puerto lempira,15.2667,-83.7667,302.23,74,40,4.12,HN,1723411284
462,salekhard,66.53,66.6019,287.88,52,100,6.74,RU,1723411285
463,fort st. john,56.2499,-120.8529,303.09,30,0,4.12,CA,1723411286
464,tabou,4.423,-7.3528,297.56,90,100,4.55,CI,1723411287
465,homer,59.6425,-151.5483,286.09,86,75,4.47,US,1723411289
466,boca suno,-0.7167,-77.1333,301.8,62,76,1.66,EC,1723411290
467,la paz,-16.5,-68.15,289.14,13,75,5.66,BO,1723411287
468,hithadhoo,-0.6,73.0833,300.88,78,68,8.02,MV,1723411292
469,lae,-6.7221,146.9847,295.23,84,43,2.83,PG,1723411293
470,howrah,22.5892,88.3103,302.15,94,40,3.6,IN,1723411294
471,san matias,-16.3667,-58.4,302.63,18,48,2.87,BO,1723411296
472,ekibastuz,51.6667,75.3667,288.34,59,58,3.4,KZ,1723411297
473,qui nhon,13.7667,109.2333,300.37,78,86,1.89,VN,1723411298
474,ribeira brava,32.65,-17.0667,297.43,96,58,0.82,PT,1723411299
475,hutang,31.5333,119.4833,298.84,91,100,1.53,CN,1723411300
476,rikaze,29.25,88.8833,287.87,60,100,1.26,CN,1723411301
477,tuy hoa,13.0833,109.3,299.33,85,77,2.49,VN,1723411302
478,flying fish cove,-10.4217,105.6791,296.97,73,20,5.66,CX,1723411305
479,haimen,23.1935,116.6142,300.49,90,100,3.17,CN,1723411306
480,plastun,44.7561,136.2939,288.26,94,84,0.78,RU,1723411307
481,kiruna,67.8557,20.2251,285.66,94,100,1.54,SE,1723411308
482,mindelo,16.8901,-24.9804,298.88,82,85,7.69,CV,1723411309
483,biltine,14.5333,20.9167,296.55,81,100,0.65,TD,1723411310
484,lulea,65.5842,22.1547,289.19,94,0,2.06,SE,1723411018
485,sept-iles,50.2001,-66.3821,294.29,66,40,3.6,CA,1723411312
486,rabigh,22.7986,39.0349,307.72,47,94,3.56,SA,1723411313
487,alpena,45.0617,-83.4327,295.33,68,20,4.12,US,1723411315
488,likiep,9.8251,169.3107,301.38,79,73,6.69,MH,1723411316
489,sharypovo,55.5403,89.2008,284.45,90,91,2.03,RU,1723411317
490,qiongshan,20.0058,110.3542,300.14,89,0,2.0,CN,1723411318
491,freetown,8.484,-13.2299,297.11,93,100,3.78,SL,1723411319
492,safi,32.1667,-8.8333,300.11,42,57,4.75,MA,1723411320
493,port blair,11.6667,92.75,299.17,94,40,1.03,IN,1723411321
494,midoun,33.8081,10.9923,301.27,72,0,6.08,TN,1723411322
495,shingu,33.7333,135.9833,298.74,79,39,1.75,JP,1723411323
496,zaigrayevo,51.8336,108.2703,290.5,83,71,0.82,RU,1723411325
497,greymouth,-42.4667,171.2,284.57,95,100,7.45,NZ,1723411326
498,kyakhta,50.3508,106.4494,290.88,83,100,0.67,RU,1723411327
499,ginir,7.1333,40.7,288.55,78,11,3.05,ET,1723411328
500,penzance,50.1186,-5.5371,291.94,87,33,8.05,GB,1723411329
501,mitchell,43.7094,-98.0298,293.14,83,100,4.12,US,1723411330
502,saint peter,13.25,-59.6167,301.61,78,51,8.03,BB,1723411331
503,gogapur,23.55,75.5167,296.48,94,100,3.88,IN,1723411332
504,sferracavallo,42.726,12.0956,300.58,78,40,0.54,IT,1723411333
505,hvardiiske,45.1209,34.0185,295.03,57,0,1.8,UA,1723411334
506,azul,-36.777,-59.8585,280.62,60,31,8.05,AR,1723411336
507,dahab,28.501,34.5134,305.53,36,0,4.85,EG,1723411337
508,ilobu,7.8333,4.4833,295.8,89,65,2.45,NG,1723411338
509,amurzet,47.6967,131.0981,293.46,99,100,2.45,RU,1723411339
510,nova vicosa,-17.8919,-39.3719,295.48,82,100,3.49,BR,1723411340
511,christchurch,-43.5333,172.6333,283.68,71,90,3.6,NZ,1723411183
512,kirensk,57.7853,108.1119,290.93,98,100,1.97,RU,1723411342
513,kulhudhuffushi,6.6221,73.07,301.19,78,54,7.86,MV,1723411344
514,bloomfield,40.8068,-74.1854,301.73,43,40,5.66,US,1723411346
515,neiafu,-18.65,-173.9833,295.53,83,75,3.6,TO,1723411347
516,upington,-28.4478,21.2561,285.36,50,1,3.09,ZA,1723411348
517,al kharj,24.155,47.3346,307.36,14,5,3.87,SA,1723411351
518,vila franca do campo,37.7167,-25.4333,294.77,69,10,5.42,PT,1723411352
519,cidreira,-30.1811,-50.2056,287.72,62,5,6.82,BR,1723411353
520,achi,8.5682,-74.554,305.33,56,35,1.5,CO,1723411354
521,kirakira,-10.4544,161.9205,298.07,89,100,6.86,SB,1723411356
522,yulinshi,38.2906,109.7494,292.78,63,0,3.87,CN,1723411357
523,khandyga,62.6667,135.6,288.7,72,100,1.16,RU,1723411358
524,sabha,27.0377,14.4283,305.07,24,5,5.15,LY,1723411359
525,esil,51.9556,66.4042,288.77,64,91,3.46,KZ,1723411360
526,gunjur,13.2019,-16.7339,300.19,83,75,3.09,GM,1723411361
527,bella vista,36.4295,-94.2316,298.12,82,100,3.09,US,1723411134
528,hirara,24.8,125.2833,299.07,100,20,0.51,JP,1723411363
529,hanceville,34.0607,-86.7675,303.71,33,2,3.64,US,1723411364
530,fisterra,42.9049,-9.2629,292.05,93,74,2.6,ES,1723411366
531,el charco,2.4769,-78.1105,299.93,82,100,3.26,CO,1723411368
532,las tablas,7.7667,-80.2833,304.91,99,62,3.23,PA,1723411369
533,arteche,12.2645,125.4048,298.14,94,57,1.78,PH,1723411371
534,"laikit, laikit ii (dimembe)",1.4792,124.9735,296.62,88,40,2.06,ID,1723411372
535,xiaoweizhai,26.1903,107.5125,293.9,89,100,1.01,CN,1723411373
536,kurumkan,54.3,110.3,293.12,66,99,0.74,RU,1723411375
537,vernon,50.2581,-119.2691,305.89,25,21,1.03,CA,1723411232
538,argo,37.6333,22.7333,300.59,41,0,2.7,GR,1723411377
539,cartagena,10.3997,-75.5144,303.94,66,20,5.14,CO,1723411333
540,kruisfontein,-34.0033,24.7314,285.48,72,48,8.71,ZA,1723411379
541,tobelo,1.7284,128.0095,299.16,83,24,2.2,ID,1723411228
542,ares,-6.1944,-35.1603,298.37,73,60,3.42,BR,1723411382
543,baotou,40.6522,109.8222,291.75,71,0,3.36,CN,1723411384
544,sur,22.5667,59.5289,303.33,66,15,5.04,OM,1723411385
545,polyarnyy,69.1989,33.4478,286.53,72,21,4.68,RU,1723411386
546,progreso,21.2833,-89.6667,302.57,89,100,7.36,MX,1723411387
547,itoman,26.1247,127.6694,302.16,84,20,2.06,JP,1723411388
548,ulsteinvik,62.3432,5.8487,286.35,87,89,3.86,NO,1723411389
549,acarau,-2.8856,-40.12,298.75,82,36,8.99,BR,1723411390
550,lata,40.1629,-8.3327,289.52,93,0,1.53,PT,1723411391
551,lerwick,60.1545,-1.1494,285.68,94,100,4.49,GB,1723411393
552,garissa,-0.4536,39.6401,297.12,76,7,8.01,KE,1723411394
553,hengchun,22.0042,120.7439,301.7,82,32,6.04,TW,1723411395
554,harper,4.375,-7.7169,297.74,89,100,5.01,LR,1723411397
555,coahuayana de hidalgo,18.7,-103.6583,303.21,70,100,1.83,MX,1723411398
556,velyka bahachka,49.7912,33.7226,291.06,49,54,3.28,UA,1723411399
557,capao bonito,-24.0058,-48.3494,286.33,56,92,2.21,BR,1723411400
558,el granada,37.5027,-122.4694,296.03,76,75,7.72,US,1723411401
559,yoko,5.5333,12.3167,292.23,98,100,1.02,CM,1723411402
560,tadine,-21.55,167.8833,294.09,70,100,7.04,NC,1723411403
561,saint-pierre,-21.3393,55.4781,294.97,64,100,2.57,RE,1723411404
562,arvayheer,46.2639,102.775,286.16,67,100,0.41,MN,1723411405
563,mukalla,14.5425,49.1242,303.5,57,10,3.87,YE,1723411406
564,aral,40.5156,81.2636,298.85,38,32,2.37,CN,1723411407
565,trairi,-3.2778,-39.2689,298.18,80,42,5.63,BR,1723411407
566,zaozersk,69.4005,32.4476,284.53,86,41,2.74,RU,1723411411
567,billund,55.7335,9.1078,285.21,94,64,2.06,DK,1723411412
568,al bardiyah,31.7561,25.0865,299.18,67,0,5.91,LY,1723411413
569,conduaga,8.862,117.4893,298.27,88,73,1.65,PH,1723411414
570,kachug,53.9606,105.8817,290.27,97,85,1.48,RU,1723411415
571,drama,41.1544,24.1394,298.31,39,0,1.7,GR,1723411416
572,kota tinggi,1.7381,103.8999,297.81,93,97,0.67,MY,1723411417
573,sadjoavato,-12.6334,49.349,293.49,86,8,3.38,MG,1723411418
574,woolgoolga,-30.1106,153.2007,289.32,93,100,8.56,AU,1723411420
575,sisimiut,66.9395,-53.6735,281.43,77,100,1.15,GL,1723411421
576,umm kaddadah,13.6017,26.6876,299.72,68,100,1.65,SD,1723411422
577,brasilia,-15.7797,-47.9297,298.66,34,0,2.57,BR,1723411281
578,carolina beach,34.0352,-77.8936,301.49,96,100,5.13,US,1723411347
579,beboto,8.2668,16.939,295.31,94,100,0.44,TD,1723411425
580,carahue,-38.7,-73.1667,284.15,78,84,0.63,CL,1723411426
581,kharovsk,59.9642,40.1912,285.22,97,100,1.25,RU,1723411427
582,port douglas,-16.4833,145.4667,293.85,86,99,2.55,AU,1723411428
